{
"type": "FeatureCollection",
"name": "heath1",
"crs": { "type": "name", "properties": { "name": "urn:ogc:def:crs:EPSG::4269" } },
"features": [
{ "type": "Feature", "properties": { "CountyFIPS": 1001, "Pop_With_Asthma": 535114.1, "TotalPopulation": 54571, "CountyState": "Autauga, AL", "Longitude": -86.521728224166665, "Latitude": 32.490294926666671, "Percentage": 9.8058327683201689 }, "geometry": { "type": "Point", "coordinates": [ -86.521728224166665, 32.490294926666671 ] } },
{ "type": "Feature", "properties": { "CountyFIPS": 1003, "Pop_With_Asthma": 1684117.1, "TotalPopulation": 182265, "CountyState": "Baldwin, AL", "Longitude": -87.755912697096775, "Latitude": 30.556508418387097, "Percentage": 9.239936905055826 }, "geometry": { "type": "Point", "coordinates": [ -87.755912697096775, 30.556508418387097 ] } },
{ "type": "Feature", "properties": { "CountyFIPS": 1005, "Pop_With_Asthma": 310718.3, "TotalPopulation": 27457, "CountyState": "Barbour, AL", "Longitude": -85.330689825555567, "Latitude": 31.865907273333335, "Percentage": 11.316542229668208 }, "geometry": { "type": "Point", "coordinates": [ -85.330689825555567, 31.865907273333335 ] } },
{ "type": "Feature", "properties": { "CountyFIPS": 1007, "Pop_With_Asthma": 231061.4, "TotalPopulation": 22915, "CountyState": "Bibb, AL", "Longitude": -87.139075132499997, "Latitude": 33.04201157, "Percentage": 10.083412611826315 }, "geometry": { "type": "Point", "coordinates": [ -87.139075132499997, 33.04201157 ] } },
{ "type": "Feature", "properties": { "CountyFIPS": 1009, "Pop_With_Asthma": 558551.9, "TotalPopulation": 57322, "CountyState": "Blount, AL", "Longitude": -86.588904418888887, "Latitude": 33.969439827777776, "Percentage": 9.7441104636963125 }, "geometry": { "type": "Point", "coordinates": [ -86.588904418888887, 33.969439827777776 ] } },
{ "type": "Feature", "properties": { "CountyFIPS": 1011, "Pop_With_Asthma": 121635.4, "TotalPopulation": 10914, "CountyState": "Bullock, AL", "Longitude": -85.6845642, "Latitude": 32.110813883333329, "Percentage": 11.144896463258201 }, "geometry": { "type": "Point", "coordinates": [ -85.6845642, 32.110813883333329 ] } },
{ "type": "Feature", "properties": { "CountyFIPS": 1013, "Pop_With_Asthma": 229697.8, "TotalPopulation": 20947, "CountyState": "Butler, AL", "Longitude": -86.6706075, "Latitude": 31.771374464444445, "Percentage": 10.965665727789183 }, "geometry": { "type": "Point", "coordinates": [ -86.6706075, 31.771374464444445 ] } },
{ "type": "Feature", "properties": { "CountyFIPS": 1015, "Pop_With_Asthma": 1249769.2, "TotalPopulation": 118561, "CountyState": "Calhoun, AL", "Longitude": -85.820304072142861, "Latitude": 33.723297051785714, "Percentage": 10.541149281804303 }, "geometry": { "type": "Point", "coordinates": [ -85.820304072142861, 33.723297051785714 ] } },
{ "type": "Feature", "properties": { "CountyFIPS": 1017, "Pop_With_Asthma": 365790.0, "TotalPopulation": 34215, "CountyState": "Chambers, AL", "Longitude": -85.266985407777781, "Latitude": 32.86075774, "Percentage": 10.690925032880315 }, "geometry": { "type": "Point", "coordinates": [ -85.266985407777781, 32.86075774 ] } },
{ "type": "Feature", "properties": { "CountyFIPS": 1019, "Pop_With_Asthma": 261028.9, "TotalPopulation": 25989, "CountyState": "Cherokee, AL", "Longitude": -85.612366375000008, "Latitude": 34.18050297, "Percentage": 10.043822386394243 }, "geometry": { "type": "Point", "coordinates": [ -85.612366375, 34.18050297 ] } },
{ "type": "Feature", "properties": { "CountyFIPS": 1021, "Pop_With_Asthma": 437789.2, "TotalPopulation": 43643, "CountyState": "Chilton, AL", "Longitude": -86.682677495555552, "Latitude": 32.85986404222222, "Percentage": 10.031143596911303 }, "geometry": { "type": "Point", "coordinates": [ -86.682677495555552, 32.85986404222222 ] } },
{ "type": "Feature", "properties": { "CountyFIPS": 1023, "Pop_With_Asthma": 150269.5, "TotalPopulation": 13859, "CountyState": "Choctaw, AL", "Longitude": -88.269198077499993, "Latitude": 32.002609592500001, "Percentage": 10.842737571253338 }, "geometry": { "type": "Point", "coordinates": [ -88.269198077499993, 32.002609592500001 ] } },
{ "type": "Feature", "properties": { "CountyFIPS": 1025, "Pop_With_Asthma": 280072.6, "TotalPopulation": 25833, "CountyState": "Clarke, AL", "Longitude": -87.833801612222217, "Latitude": 31.678445043333333, "Percentage": 10.841659892385707 }, "geometry": { "type": "Point", "coordinates": [ -87.833801612222217, 31.678445043333333 ] } },
{ "type": "Feature", "properties": { "CountyFIPS": 1027, "Pop_With_Asthma": 146736.4, "TotalPopulation": 13932, "CountyState": "Clay, AL", "Longitude": -85.859207147500001, "Latitude": 33.26849391, "Percentage": 10.53232845248349 }, "geometry": { "type": "Point", "coordinates": [ -85.859207147500001, 33.26849391 ] } },
{ "type": "Feature", "properties": { "CountyFIPS": 1029, "Pop_With_Asthma": 147408.4, "TotalPopulation": 14972, "CountyState": "Cleburne, AL", "Longitude": -85.51661419749999, "Latitude": 33.662823182499999, "Percentage": 9.8456051295752065 }, "geometry": { "type": "Point", "coordinates": [ -85.51661419749999, 33.662823182499999 ] } },
{ "type": "Feature", "properties": { "CountyFIPS": 1031, "Pop_With_Asthma": 482648.7, "TotalPopulation": 49948, "CountyState": "Coffee, AL", "Longitude": -85.938086014999996, "Latitude": 31.360894672857142, "Percentage": 9.6630235444862667 }, "geometry": { "type": "Point", "coordinates": [ -85.938086015, 31.360894672857142 ] } },
{ "type": "Feature", "properties": { "CountyFIPS": 1033, "Pop_With_Asthma": 545046.7, "TotalPopulation": 54428, "CountyState": "Colbert, AL", "Longitude": -87.694183113571427, "Latitude": 34.722937707857142, "Percentage": 10.014086499595795 }, "geometry": { "type": "Point", "coordinates": [ -87.694183113571427, 34.722937707857142 ] } },
{ "type": "Feature", "properties": { "CountyFIPS": 1035, "Pop_With_Asthma": 143348.4, "TotalPopulation": 13228, "CountyState": "Conecuh, AL", "Longitude": -87.019636060000011, "Latitude": 31.430220282000001, "Percentage": 10.836740247958875 }, "geometry": { "type": "Point", "coordinates": [ -87.019636060000011, 31.430220282 ] } },
{ "type": "Feature", "properties": { "CountyFIPS": 1037, "Pop_With_Asthma": 119351.8, "TotalPopulation": 11539, "CountyState": "Coosa, AL", "Longitude": -86.205740663333344, "Latitude": 32.943436176666665, "Percentage": 10.343339977467718 }, "geometry": { "type": "Point", "coordinates": [ -86.205740663333344, 32.943436176666665 ] } },
{ "type": "Feature", "properties": { "CountyFIPS": 1039, "Pop_With_Asthma": 377632.1, "TotalPopulation": 37765, "CountyState": "Covington, AL", "Longitude": -86.399968398571431, "Latitude": 31.272334770714284, "Percentage": 9.9995260161525223 }, "geometry": { "type": "Point", "coordinates": [ -86.399968398571431, 31.272334770714284 ] } },
{ "type": "Feature", "properties": { "CountyFIPS": 1041, "Pop_With_Asthma": 142167.8, "TotalPopulation": 13906, "CountyState": "Crenshaw, AL", "Longitude": -86.305957883333335, "Latitude": 31.73357726, "Percentage": 10.223486264921616 }, "geometry": { "type": "Point", "coordinates": [ -86.305957883333335, 31.73357726 ] } },
{ "type": "Feature", "properties": { "CountyFIPS": 1043, "Pop_With_Asthma": 778922.9, "TotalPopulation": 80406, "CountyState": "Cullman, AL", "Longitude": -86.849167874444447, "Latitude": 34.145546222777774, "Percentage": 9.6873728328731694 }, "geometry": { "type": "Point", "coordinates": [ -86.849167874444447, 34.145546222777774 ] } },
{ "type": "Feature", "properties": { "CountyFIPS": 1045, "Pop_With_Asthma": 506439.6, "TotalPopulation": 50251, "CountyState": "Dale, AL", "Longitude": -85.634266415714279, "Latitude": 31.39796338857143, "Percentage": 10.078199438817139 }, "geometry": { "type": "Point", "coordinates": [ -85.634266415714279, 31.39796338857143 ] } },
{ "type": "Feature", "properties": { "CountyFIPS": 1047, "Pop_With_Asthma": 523430.7, "TotalPopulation": 43820, "CountyState": "Dallas, AL", "Longitude": -87.047043595333335, "Latitude": 32.393163901999998, "Percentage": 11.94501825650388 }, "geometry": { "type": "Point", "coordinates": [ -87.047043595333335, 32.393163902 ] } },
{ "type": "Feature", "properties": { "CountyFIPS": 1049, "Pop_With_Asthma": 742607.8, "TotalPopulation": 71109, "CountyState": "DeKalb, AL", "Longitude": -85.789604989285721, "Latitude": 34.461152899285715, "Percentage": 10.44323222095656 }, "geometry": { "type": "Point", "coordinates": [ -85.789604989285721, 34.461152899285715 ] } },
{ "type": "Feature", "properties": { "CountyFIPS": 1051, "Pop_With_Asthma": 764342.3, "TotalPopulation": 79303, "CountyState": "Elmore, AL", "Longitude": -86.229341213333328, "Latitude": 32.561017487999997, "Percentage": 9.638252020730615 }, "geometry": { "type": "Point", "coordinates": [ -86.229341213333328, 32.561017488 ] } },
{ "type": "Feature", "properties": { "CountyFIPS": 1053, "Pop_With_Asthma": 398294.1, "TotalPopulation": 38319, "CountyState": "Escambia, AL", "Longitude": -87.250725524444448, "Latitude": 31.110404865555559, "Percentage": 10.394167384326314 }, "geometry": { "type": "Point", "coordinates": [ -87.250725524444448, 31.110404865555559 ] } },
{ "type": "Feature", "properties": { "CountyFIPS": 1055, "Pop_With_Asthma": 1067639.2, "TotalPopulation": 104430, "CountyState": "Etowah, AL", "Longitude": -86.019662527999998, "Latitude": 34.021092382, "Percentage": 10.22349133390788 }, "geometry": { "type": "Point", "coordinates": [ -86.019662528, 34.021092382 ] } },
{ "type": "Feature", "properties": { "CountyFIPS": 1057, "Pop_With_Asthma": 175093.6, "TotalPopulation": 17241, "CountyState": "Fayette, AL", "Longitude": -87.757979628000001, "Latitude": 33.723813133999997, "Percentage": 10.155652224348936 }, "geometry": { "type": "Point", "coordinates": [ -87.757979628, 33.723813134 ] } },
{ "type": "Feature", "properties": { "CountyFIPS": 1059, "Pop_With_Asthma": 312795.6, "TotalPopulation": 31704, "CountyState": "Franklin, AL", "Longitude": -87.825588915555556, "Latitude": 34.466215265555554, "Percentage": 9.8661241483724442 }, "geometry": { "type": "Point", "coordinates": [ -87.825588915555556, 34.466215265555554 ] } },
{ "type": "Feature", "properties": { "CountyFIPS": 1061, "Pop_With_Asthma": 279689.4, "TotalPopulation": 26790, "CountyState": "Geneva, AL", "Longitude": -85.79310162, "Latitude": 31.096202208333334, "Percentage": 10.440067189249721 }, "geometry": { "type": "Point", "coordinates": [ -85.79310162, 31.096202208333334 ] } },
{ "type": "Feature", "properties": { "CountyFIPS": 1063, "Pop_With_Asthma": 114067.7, "TotalPopulation": 9045, "CountyState": "Greene, AL", "Longitude": -87.94809839, "Latitude": 32.853488053333336, "Percentage": 12.611133222775013 }, "geometry": { "type": "Point", "coordinates": [ -87.94809839, 32.853488053333336 ] } },
{ "type": "Feature", "properties": { "CountyFIPS": 1065, "Pop_With_Asthma": 176133.9, "TotalPopulation": 15760, "CountyState": "Hale, AL", "Longitude": -87.63453503833334, "Latitude": 32.755632275000004, "Percentage": 11.176008883248731 }, "geometry": { "type": "Point", "coordinates": [ -87.63453503833334, 32.755632275 ] } },
{ "type": "Feature", "properties": { "CountyFIPS": 1067, "Pop_With_Asthma": 175053.2, "TotalPopulation": 17302, "CountyState": "Henry, AL", "Longitude": -85.254418244999997, "Latitude": 31.4988047, "Percentage": 10.117512426309096 }, "geometry": { "type": "Point", "coordinates": [ -85.254418245, 31.4988047 ] } },
{ "type": "Feature", "properties": { "CountyFIPS": 1069, "Pop_With_Asthma": 1042825.5, "TotalPopulation": 101547, "CountyState": "Houston, AL", "Longitude": -85.373731716363636, "Latitude": 31.204461147727272, "Percentage": 10.269387574226712 }, "geometry": { "type": "Point", "coordinates": [ -85.373731716363636, 31.204461147727272 ] } },
{ "type": "Feature", "properties": { "CountyFIPS": 1071, "Pop_With_Asthma": 544680.8, "TotalPopulation": 53227, "CountyState": "Jackson, AL", "Longitude": -85.98451539727273, "Latitude": 34.746388542727274, "Percentage": 10.233167377458809 }, "geometry": { "type": "Point", "coordinates": [ -85.98451539727273, 34.746388542727274 ] } },
{ "type": "Feature", "properties": { "CountyFIPS": 1073, "Pop_With_Asthma": 6452943.7, "TotalPopulation": 658466, "CountyState": "Jefferson, AL", "Longitude": -86.819511071472391, "Latitude": 33.517914408036809, "Percentage": 9.7999649184620008 }, "geometry": { "type": "Point", "coordinates": [ -86.819511071472391, 33.517914408036809 ] } },
{ "type": "Feature", "properties": { "CountyFIPS": 1075, "Pop_With_Asthma": 150844.0, "TotalPopulation": 14564, "CountyState": "Lamar, AL", "Longitude": -88.096902083333319, "Latitude": 33.77299018, "Percentage": 10.357319417742378 }, "geometry": { "type": "Point", "coordinates": [ -88.096902083333319, 33.77299018 ] } },
{ "type": "Feature", "properties": { "CountyFIPS": 1077, "Pop_With_Asthma": 899805.9, "TotalPopulation": 92709, "CountyState": "Lauderdale, AL", "Longitude": -87.624376725454553, "Latitude": 34.85813292318182, "Percentage": 9.7057017118079152 }, "geometry": { "type": "Point", "coordinates": [ -87.624376725454553, 34.85813292318182 ] } },
{ "type": "Feature", "properties": { "CountyFIPS": 1079, "Pop_With_Asthma": 359350.8, "TotalPopulation": 34339, "CountyState": "Lawrence, AL", "Longitude": -87.275101685555555, "Latitude": 34.521139251111116, "Percentage": 10.464800955182154 }, "geometry": { "type": "Point", "coordinates": [ -87.275101685555555, 34.521139251111116 ] } },
{ "type": "Feature", "properties": { "CountyFIPS": 1081, "Pop_With_Asthma": 1396629.4, "TotalPopulation": 140247, "CountyState": "Lee, AL", "Longitude": -85.365192835555547, "Latitude": 32.592283657037036, "Percentage": 9.9583549024221547 }, "geometry": { "type": "Point", "coordinates": [ -85.365192835555547, 32.592283657037036 ] } },
{ "type": "Feature", "properties": { "CountyFIPS": 1083, "Pop_With_Asthma": 783663.4, "TotalPopulation": 82782, "CountyState": "Limestone, AL", "Longitude": -86.961833685000002, "Latitude": 34.818749387499999, "Percentage": 9.4665917711579812 }, "geometry": { "type": "Point", "coordinates": [ -86.961833685, 34.818749387499999 ] } },
{ "type": "Feature", "properties": { "CountyFIPS": 1085, "Pop_With_Asthma": 136808.1, "TotalPopulation": 11299, "CountyState": "Lowndes, AL", "Longitude": -86.644942912499999, "Latitude": 32.147212762499997, "Percentage": 12.107983007345783 }, "geometry": { "type": "Point", "coordinates": [ -86.644942912499999, 32.147212762499997 ] } },
{ "type": "Feature", "properties": { "CountyFIPS": 1087, "Pop_With_Asthma": 256542.8, "TotalPopulation": 21452, "CountyState": "Macon, AL", "Longitude": -85.713122190833346, "Latitude": 32.415179834166665, "Percentage": 11.95892224501212 }, "geometry": { "type": "Point", "coordinates": [ -85.713122190833346, 32.415179834166665 ] } },
{ "type": "Feature", "properties": { "CountyFIPS": 1089, "Pop_With_Asthma": 3151099.0, "TotalPopulation": 334811, "CountyState": "Madison, AL", "Longitude": -86.604714949452045, "Latitude": 34.736731879589037, "Percentage": 9.4115754858711327 }, "geometry": { "type": "Point", "coordinates": [ -86.604714949452045, 34.736731879589037 ] } },
{ "type": "Feature", "properties": { "CountyFIPS": 1091, "Pop_With_Asthma": 234066.1, "TotalPopulation": 21027, "CountyState": "Marengo, AL", "Longitude": -87.797470645000018, "Latitude": 32.268666783333337, "Percentage": 11.131692585723119 }, "geometry": { "type": "Point", "coordinates": [ -87.797470645000018, 32.268666783333337 ] } },
{ "type": "Feature", "properties": { "CountyFIPS": 1093, "Pop_With_Asthma": 310078.4, "TotalPopulation": 30776, "CountyState": "Marion, AL", "Longitude": -87.879916484999995, "Latitude": 34.123860725, "Percentage": 10.075331427086041 }, "geometry": { "type": "Point", "coordinates": [ -87.879916485, 34.123860725 ] } },
{ "type": "Feature", "properties": { "CountyFIPS": 1095, "Pop_With_Asthma": 919133.6, "TotalPopulation": 93019, "CountyState": "Marshall, AL", "Longitude": -86.293861431111111, "Latitude": 34.318445483333335, "Percentage": 9.8811382620754902 }, "geometry": { "type": "Point", "coordinates": [ -86.293861431111111, 34.318445483333335 ] } },
{ "type": "Feature", "properties": { "CountyFIPS": 1097, "Pop_With_Asthma": 4292461.3, "TotalPopulation": 412992, "CountyState": "Mobile, AL", "Longitude": -88.145162741140354, "Latitude": 30.686589571403509, "Percentage": 10.393570093367426 }, "geometry": { "type": "Point", "coordinates": [ -88.145162741140354, 30.686589571403509 ] } },
{ "type": "Feature", "properties": { "CountyFIPS": 1099, "Pop_With_Asthma": 250309.6, "TotalPopulation": 23068, "CountyState": "Monroe, AL", "Longitude": -87.365372718571422, "Latitude": 31.543988247142856, "Percentage": 10.850945032079071 }, "geometry": { "type": "Point", "coordinates": [ -87.365372718571422, 31.543988247142856 ] } },
{ "type": "Feature", "properties": { "CountyFIPS": 1101, "Pop_With_Asthma": 2496618.2, "TotalPopulation": 229363, "CountyState": "Montgomery, AL", "Longitude": -86.245756697538468, "Latitude": 32.343451891846151, "Percentage": 10.885008480007674 }, "geometry": { "type": "Point", "coordinates": [ -86.245756697538468, 32.343451891846151 ] } },
{ "type": "Feature", "properties": { "CountyFIPS": 1103, "Pop_With_Asthma": 1168023.5, "TotalPopulation": 119490, "CountyState": "Morgan, AL", "Longitude": -86.938393851111115, "Latitude": 34.521425328148148, "Percentage": 9.7750732278851782 }, "geometry": { "type": "Point", "coordinates": [ -86.938393851111115, 34.521425328148148 ] } },
{ "type": "Feature", "properties": { "CountyFIPS": 1105, "Pop_With_Asthma": 128818.2, "TotalPopulation": 10591, "CountyState": "Perry, AL", "Longitude": -87.30292974000001, "Latitude": 32.632253916666663, "Percentage": 12.16298744216788 }, "geometry": { "type": "Point", "coordinates": [ -87.30292974000001, 32.632253916666663 ] } },
{ "type": "Feature", "properties": { "CountyFIPS": 1107, "Pop_With_Asthma": 212122.5, "TotalPopulation": 19746, "CountyState": "Pickens, AL", "Longitude": -88.07368506600001, "Latitude": 33.335300908000001, "Percentage": 10.742555454269219 }, "geometry": { "type": "Point", "coordinates": [ -88.07368506600001, 33.335300908 ] } },
{ "type": "Feature", "properties": { "CountyFIPS": 1109, "Pop_With_Asthma": 347633.6, "TotalPopulation": 32899, "CountyState": "Pike, AL", "Longitude": -85.940774204999997, "Latitude": 31.798906746250001, "Percentage": 10.566691996717227 }, "geometry": { "type": "Point", "coordinates": [ -85.940774205, 31.798906746250001 ] } },
{ "type": "Feature", "properties": { "CountyFIPS": 1111, "Pop_With_Asthma": 232805.4, "TotalPopulation": 22913, "CountyState": "Randolph, AL", "Longitude": -85.43559066, "Latitude": 33.266798826666665, "Percentage": 10.160406755990049 }, "geometry": { "type": "Point", "coordinates": [ -85.43559066, 33.266798826666665 ] } },
{ "type": "Feature", "properties": { "CountyFIPS": 1113, "Pop_With_Asthma": 583954.1, "TotalPopulation": 52947, "CountyState": "Russell, AL", "Longitude": -85.072786376923077, "Latitude": 32.416536403846152, "Percentage": 11.029030917710163 }, "geometry": { "type": "Point", "coordinates": [ -85.072786376923077, 32.416536403846152 ] } },
{ "type": "Feature", "properties": { "CountyFIPS": 1115, "Pop_With_Asthma": 797751.5, "TotalPopulation": 83593, "CountyState": "St. Clair, AL", "Longitude": -86.349185424615385, "Latitude": 33.660073227692308, "Percentage": 9.5432811359802852 }, "geometry": { "type": "Point", "coordinates": [ -86.349185424615385, 33.660073227692308 ] } },
{ "type": "Feature", "properties": { "CountyFIPS": 1117, "Pop_With_Asthma": 1752270.8, "TotalPopulation": 195048, "CountyState": "Shelby, AL", "Longitude": -86.736149112765958, "Latitude": 33.285513101489364, "Percentage": 8.9837927074361179 }, "geometry": { "type": "Point", "coordinates": [ -86.736149112765958, 33.285513101489364 ] } },
{ "type": "Feature", "properties": { "CountyFIPS": 1119, "Pop_With_Asthma": 164904.0, "TotalPopulation": 13763, "CountyState": "Sumter, AL", "Longitude": -88.231782582500003, "Latitude": 32.565018504999998, "Percentage": 11.981690038509045 }, "geometry": { "type": "Point", "coordinates": [ -88.231782582500003, 32.565018505 ] } },
{ "type": "Feature", "properties": { "CountyFIPS": 1121, "Pop_With_Asthma": 883578.4, "TotalPopulation": 82291, "CountyState": "Talladega, AL", "Longitude": -86.165900009090919, "Latitude": 33.366856456363635, "Percentage": 10.737242225759804 }, "geometry": { "type": "Point", "coordinates": [ -86.165900009090919, 33.366856456363635 ] } },
{ "type": "Feature", "properties": { "CountyFIPS": 1123, "Pop_With_Asthma": 428386.6, "TotalPopulation": 41616, "CountyState": "Tallapoosa, AL", "Longitude": -85.82991716000001, "Latitude": 32.870961029, "Percentage": 10.293795655517108 }, "geometry": { "type": "Point", "coordinates": [ -85.82991716, 32.870961029 ] } },
{ "type": "Feature", "properties": { "CountyFIPS": 1125, "Pop_With_Asthma": 1996749.0, "TotalPopulation": 194656, "CountyState": "Tuscaloosa, AL", "Longitude": -87.531010554468097, "Latitude": 33.215375507872338, "Percentage": 10.25783433338813 }, "geometry": { "type": "Point", "coordinates": [ -87.531010554468097, 33.215375507872338 ] } },
{ "type": "Feature", "properties": { "CountyFIPS": 1127, "Pop_With_Asthma": 679198.3, "TotalPopulation": 67023, "CountyState": "Walker, AL", "Longitude": -87.253896011666654, "Latitude": 33.819398578333335, "Percentage": 10.133809289348433 }, "geometry": { "type": "Point", "coordinates": [ -87.253896011666654, 33.819398578333335 ] } },
{ "type": "Feature", "properties": { "CountyFIPS": 1129, "Pop_With_Asthma": 186974.9, "TotalPopulation": 17581, "CountyState": "Washington, AL", "Longitude": -88.202417373999992, "Latitude": 31.415296985999998, "Percentage": 10.63505488880041 }, "geometry": { "type": "Point", "coordinates": [ -88.202417374, 31.415296986 ] } },
{ "type": "Feature", "properties": { "CountyFIPS": 1131, "Pop_With_Asthma": 141637.2, "TotalPopulation": 11670, "CountyState": "Wilcox, AL", "Longitude": -87.351839117500006, "Latitude": 32.012708787500003, "Percentage": 12.136863753213365 }, "geometry": { "type": "Point", "coordinates": [ -87.351839117500006, 32.012708787500003 ] } },
{ "type": "Feature", "properties": { "CountyFIPS": 1133, "Pop_With_Asthma": 248356.7, "TotalPopulation": 24484, "CountyState": "Winston, AL", "Longitude": -87.383159332857147, "Latitude": 34.157201607142859, "Percentage": 10.14363257637641 }, "geometry": { "type": "Point", "coordinates": [ -87.383159332857147, 34.157201607142859 ] } },
{ "type": "Feature", "properties": { "CountyFIPS": 4001, "Pop_With_Asthma": 960546.5, "TotalPopulation": 71518, "CountyState": "Apache, AZ", "Longitude": -109.42885566875, "Latitude": 35.550043050625, "Percentage": 13.430835593836516 }, "geometry": { "type": "Point", "coordinates": [ -109.428855668750003, 35.550043050625 ] } },
{ "type": "Feature", "properties": { "CountyFIPS": 4003, "Pop_With_Asthma": 1383492.7, "TotalPopulation": 131346, "CountyState": "Cochise, AZ", "Longitude": -110.02221970937499, "Latitude": 31.645884994687499, "Percentage": 10.533192483973627 }, "geometry": { "type": "Point", "coordinates": [ -110.022219709374994, 31.645884994687499 ] } },
{ "type": "Feature", "properties": { "CountyFIPS": 4005, "Pop_With_Asthma": 1587702.1, "TotalPopulation": 134421, "CountyState": "Coconino, AZ", "Longitude": -111.59131821785715, "Latitude": 35.546095471785712, "Percentage": 11.811414139159805 }, "geometry": { "type": "Point", "coordinates": [ -111.59131821785715, 35.546095471785712 ] } },
{ "type": "Feature", "properties": { "CountyFIPS": 4007, "Pop_With_Asthma": 602354.6, "TotalPopulation": 53597, "CountyState": "Gila, AZ", "Longitude": -110.98413801875, "Latitude": 33.827055139374998, "Percentage": 11.238587980670559 }, "geometry": { "type": "Point", "coordinates": [ -110.984138018750002, 33.827055139374998 ] } },
{ "type": "Feature", "properties": { "CountyFIPS": 4009, "Pop_With_Asthma": 401852.6, "TotalPopulation": 37220, "CountyState": "Graham, AZ", "Longitude": -109.77459357777778, "Latitude": 32.855481255555553, "Percentage": 10.796684578183772 }, "geometry": { "type": "Point", "coordinates": [ -109.774593577777779, 32.855481255555553 ] } },
{ "type": "Feature", "properties": { "CountyFIPS": 4011, "Pop_With_Asthma": 84257.5, "TotalPopulation": 8437, "CountyState": "Greenlee, AZ", "Longitude": -109.25025073333332, "Latitude": 33.04318858, "Percentage": 9.9866658764963852 }, "geometry": { "type": "Point", "coordinates": [ -109.250250733333317, 33.04318858 ] } },
{ "type": "Feature", "properties": { "CountyFIPS": 4012, "Pop_With_Asthma": 228848.3, "TotalPopulation": 20489, "CountyState": "La Paz, AZ", "Longitude": -114.15615327499999, "Latitude": 33.882947462499999, "Percentage": 11.1693250036605 }, "geometry": { "type": "Point", "coordinates": [ -114.156153275, 33.882947462499999 ] } },
{ "type": "Feature", "properties": { "CountyFIPS": 4013, "Pop_With_Asthma": 39106789.1, "TotalPopulation": 3817055, "CountyState": "Maricopa, AZ", "Longitude": -112.03558232464246, "Latitude": 33.491266017557756, "Percentage": 10.245277864741274 }, "geometry": { "type": "Point", "coordinates": [ -112.035582324642462, 33.491266017557756 ] } },
{ "type": "Feature", "properties": { "CountyFIPS": 4015, "Pop_With_Asthma": 2162255.9, "TotalPopulation": 200186, "CountyState": "Mohave, AZ", "Longitude": -114.28362744418605, "Latitude": 35.023085170465116, "Percentage": 10.801234352052591 }, "geometry": { "type": "Point", "coordinates": [ -114.283627444186052, 35.023085170465116 ] } },
{ "type": "Feature", "properties": { "CountyFIPS": 4017, "Pop_With_Asthma": 1491640.8, "TotalPopulation": 107449, "CountyState": "Navajo, AZ", "Longitude": -110.22876450645161, "Latitude": 34.972368635806454, "Percentage": 13.882314400320153 }, "geometry": { "type": "Point", "coordinates": [ -110.228764506451611, 34.972368635806454 ] } },
{ "type": "Feature", "properties": { "CountyFIPS": 4019, "Pop_With_Asthma": 10867472.4, "TotalPopulation": 980263, "CountyState": "Pima, AZ", "Longitude": -110.96766324481328, "Latitude": 32.218169107634857, "Percentage": 11.086282354837426 }, "geometry": { "type": "Point", "coordinates": [ -110.967663244813281, 32.218169107634857 ] } },
{ "type": "Feature", "properties": { "CountyFIPS": 4021, "Pop_With_Asthma": 4213370.0, "TotalPopulation": 375770, "CountyState": "Pinal, AZ", "Longitude": -111.58715438266665, "Latitude": 33.052234359466667, "Percentage": 11.212630066263937 }, "geometry": { "type": "Point", "coordinates": [ -111.587154382666654, 33.052234359466667 ] } },
{ "type": "Feature", "properties": { "CountyFIPS": 4023, "Pop_With_Asthma": 464393.4, "TotalPopulation": 47420, "CountyState": "Santa Cruz, AZ", "Longitude": -110.93024222, "Latitude": 31.430535148000001, "Percentage": 9.7931969633066203 }, "geometry": { "type": "Point", "coordinates": [ -110.93024222, 31.430535148 ] } },
{ "type": "Feature", "properties": { "CountyFIPS": 4025, "Pop_With_Asthma": 2265932.8, "TotalPopulation": 211033, "CountyState": "Yavapai, AZ", "Longitude": -112.29914047142859, "Latitude": 34.619172405714281, "Percentage": 10.737338710059563 }, "geometry": { "type": "Point", "coordinates": [ -112.299140471428586, 34.619172405714281 ] } },
{ "type": "Feature", "properties": { "CountyFIPS": 4027, "Pop_With_Asthma": 2030400.5, "TotalPopulation": 195751, "CountyState": "Yuma, AZ", "Longitude": -114.56454471509434, "Latitude": 32.668625430754716, "Percentage": 10.372363359574154 }, "geometry": { "type": "Point", "coordinates": [ -114.564544715094343, 32.668625430754716 ] } },
{ "type": "Feature", "properties": { "CountyFIPS": 5001, "Pop_With_Asthma": 201914.3, "TotalPopulation": 19019, "CountyState": "Arkansas, AR", "Longitude": -91.426027411250004, "Latitude": 34.370656744999998, "Percentage": 10.616451969083547 }, "geometry": { "type": "Point", "coordinates": [ -91.426027411250004, 34.370656745 ] } },
{ "type": "Feature", "properties": { "CountyFIPS": 5003, "Pop_With_Asthma": 234412.7, "TotalPopulation": 21853, "CountyState": "Ashley, AR", "Longitude": -91.866978652857142, "Latitude": 33.179141675714284, "Percentage": 10.726797236077427 }, "geometry": { "type": "Point", "coordinates": [ -91.866978652857142, 33.179141675714284 ] } },
{ "type": "Feature", "properties": { "CountyFIPS": 5005, "Pop_With_Asthma": 397126.0, "TotalPopulation": 41513, "CountyState": "Baxter, AR", "Longitude": -92.362370496666671, "Latitude": 36.333365232222228, "Percentage": 9.5663045311107364 }, "geometry": { "type": "Point", "coordinates": [ -92.362370496666671, 36.333365232222228 ] } },
{ "type": "Feature", "properties": { "CountyFIPS": 5007, "Pop_With_Asthma": 1978843.5, "TotalPopulation": 221339, "CountyState": "Benton, AR", "Longitude": -94.220508671224479, "Latitude": 36.33812484, "Percentage": 8.9403290879600981 }, "geometry": { "type": "Point", "coordinates": [ -94.220508671224479, 36.33812484 ] } },
{ "type": "Feature", "properties": { "CountyFIPS": 5009, "Pop_With_Asthma": 367048.5, "TotalPopulation": 36903, "CountyState": "Boone, AR", "Longitude": -93.097349032857139, "Latitude": 36.266759898571429, "Percentage": 9.9463051784407774 }, "geometry": { "type": "Point", "coordinates": [ -93.097349032857139, 36.266759898571429 ] } },
{ "type": "Feature", "properties": { "CountyFIPS": 5011, "Pop_With_Asthma": 121415.1, "TotalPopulation": 11508, "CountyState": "Bradley, AR", "Longitude": -92.10679205, "Latitude": 33.56540975, "Percentage": 10.550495307612097 }, "geometry": { "type": "Point", "coordinates": [ -92.10679205, 33.56540975 ] } },
{ "type": "Feature", "properties": { "CountyFIPS": 5013, "Pop_With_Asthma": 55804.2, "TotalPopulation": 5368, "CountyState": "Calhoun, AR", "Longitude": -92.49550604000001, "Latitude": 33.55681419, "Percentage": 10.395715350223547 }, "geometry": { "type": "Point", "coordinates": [ -92.49550604, 33.55681419 ] } },
{ "type": "Feature", "properties": { "CountyFIPS": 5015, "Pop_With_Asthma": 266077.8, "TotalPopulation": 27446, "CountyState": "Carroll, AR", "Longitude": -93.58640087000001, "Latitude": 36.368260551999995, "Percentage": 9.6945930190191643 }, "geometry": { "type": "Point", "coordinates": [ -93.58640087, 36.368260552 ] } },
{ "type": "Feature", "properties": { "CountyFIPS": 5017, "Pop_With_Asthma": 136275.3, "TotalPopulation": 11800, "CountyState": "Chicot, AR", "Longitude": -91.31324418, "Latitude": 33.3018978725, "Percentage": 11.548754237288135 }, "geometry": { "type": "Point", "coordinates": [ -91.31324418, 33.3018978725 ] } },
{ "type": "Feature", "properties": { "CountyFIPS": 5019, "Pop_With_Asthma": 242157.3, "TotalPopulation": 22995, "CountyState": "Clark, AR", "Longitude": -93.124002668000003, "Latitude": 34.098735837999996, "Percentage": 10.530867579908675 }, "geometry": { "type": "Point", "coordinates": [ -93.124002668, 34.098735838 ] } },
{ "type": "Feature", "properties": { "CountyFIPS": 5021, "Pop_With_Asthma": 164836.6, "TotalPopulation": 16083, "CountyState": "Clay, AR", "Longitude": -90.380503821666665, "Latitude": 36.359555658333335, "Percentage": 10.249120189019463 }, "geometry": { "type": "Point", "coordinates": [ -90.380503821666665, 36.359555658333335 ] } },
{ "type": "Feature", "properties": { "CountyFIPS": 5023, "Pop_With_Asthma": 249043.1, "TotalPopulation": 25970, "CountyState": "Cleburne, AR", "Longitude": -92.038958347142852, "Latitude": 35.524909275714286, "Percentage": 9.5896457450904879 }, "geometry": { "type": "Point", "coordinates": [ -92.038958347142852, 35.524909275714286 ] } },
{ "type": "Feature", "properties": { "CountyFIPS": 5025, "Pop_With_Asthma": 88358.5, "TotalPopulation": 8689, "CountyState": "Cleveland, AR", "Longitude": -92.18670222, "Latitude": 33.902723365, "Percentage": 10.1690067901945 }, "geometry": { "type": "Point", "coordinates": [ -92.18670222, 33.902723365 ] } },
{ "type": "Feature", "properties": { "CountyFIPS": 5027, "Pop_With_Asthma": 270393.8, "TotalPopulation": 24552, "CountyState": "Columbia, AR", "Longitude": -93.234538212000004, "Latitude": 33.251268324000002, "Percentage": 11.013106875203649 }, "geometry": { "type": "Point", "coordinates": [ -93.234538212, 33.251268324 ] } },
{ "type": "Feature", "properties": { "CountyFIPS": 5029, "Pop_With_Asthma": 217194.9, "TotalPopulation": 21273, "CountyState": "Conway, AR", "Longitude": -92.74195491, "Latitude": 35.21326796666667, "Percentage": 10.209885770695248 }, "geometry": { "type": "Point", "coordinates": [ -92.74195491, 35.21326796666667 ] } },
{ "type": "Feature", "properties": { "CountyFIPS": 5031, "Pop_With_Asthma": 988158.7, "TotalPopulation": 96443, "CountyState": "Craighead, AR", "Longitude": -90.665676888235296, "Latitude": 35.828028894117644, "Percentage": 10.246038592743901 }, "geometry": { "type": "Point", "coordinates": [ -90.665676888235296, 35.828028894117644 ] } },
{ "type": "Feature", "properties": { "CountyFIPS": 5033, "Pop_With_Asthma": 630431.1, "TotalPopulation": 61948, "CountyState": "Crawford, AR", "Longitude": -94.286054993636355, "Latitude": 35.497345288181819, "Percentage": 10.176778911344998 }, "geometry": { "type": "Point", "coordinates": [ -94.286054993636355, 35.497345288181819 ] } },
{ "type": "Feature", "properties": { "CountyFIPS": 5035, "Pop_With_Asthma": 600740.0, "TotalPopulation": 50902, "CountyState": "Crittenden, AR", "Longitude": -90.227007256999997, "Latitude": 35.186407238000001, "Percentage": 11.801893835212761 }, "geometry": { "type": "Point", "coordinates": [ -90.227007257, 35.186407238 ] } },
{ "type": "Feature", "properties": { "CountyFIPS": 5037, "Pop_With_Asthma": 190160.7, "TotalPopulation": 17870, "CountyState": "Cross, AR", "Longitude": -90.773972983333337, "Latitude": 35.26553924, "Percentage": 10.641337437045328 }, "geometry": { "type": "Point", "coordinates": [ -90.773972983333337, 35.26553924 ] } },
{ "type": "Feature", "properties": { "CountyFIPS": 5039, "Pop_With_Asthma": 87359.1, "TotalPopulation": 8116, "CountyState": "Dallas, AR", "Longitude": -92.580864276666674, "Latitude": 33.918485373333333, "Percentage": 10.763812222769838 }, "geometry": { "type": "Point", "coordinates": [ -92.580864276666674, 33.918485373333333 ] } },
{ "type": "Feature", "properties": { "CountyFIPS": 5041, "Pop_With_Asthma": 152121.8, "TotalPopulation": 13008, "CountyState": "Desha, AR", "Longitude": -91.371426226000011, "Latitude": 33.776677327999998, "Percentage": 11.694480319803198 }, "geometry": { "type": "Point", "coordinates": [ -91.371426226000011, 33.776677328 ] } },
{ "type": "Feature", "properties": { "CountyFIPS": 5043, "Pop_With_Asthma": 194917.2, "TotalPopulation": 18509, "CountyState": "Drew, AR", "Longitude": -91.748584634000011, "Latitude": 33.603978786, "Percentage": 10.530941704035875 }, "geometry": { "type": "Point", "coordinates": [ -91.748584634000011, 33.603978786 ] } },
{ "type": "Feature", "properties": { "CountyFIPS": 5045, "Pop_With_Asthma": 1153174.7, "TotalPopulation": 113237, "CountyState": "Faulkner, AR", "Longitude": -92.408909038000004, "Latitude": 35.10513109, "Percentage": 10.183727050345734 }, "geometry": { "type": "Point", "coordinates": [ -92.408909038, 35.10513109 ] } },
{ "type": "Feature", "properties": { "CountyFIPS": 5047, "Pop_With_Asthma": 188627.6, "TotalPopulation": 18125, "CountyState": "Franklin, AR", "Longitude": -93.867312149999989, "Latitude": 35.486290323333336, "Percentage": 10.40704 }, "geometry": { "type": "Point", "coordinates": [ -93.867312149999989, 35.486290323333336 ] } },
{ "type": "Feature", "properties": { "CountyFIPS": 5049, "Pop_With_Asthma": 128704.1, "TotalPopulation": 12245, "CountyState": "Fulton, AR", "Longitude": -91.79478638000001, "Latitude": 36.38237878, "Percentage": 10.510747243772968 }, "geometry": { "type": "Point", "coordinates": [ -91.79478638, 36.38237878 ] } },
{ "type": "Feature", "properties": { "CountyFIPS": 5051, "Pop_With_Asthma": 933609.8, "TotalPopulation": 96024, "CountyState": "Garland, AR", "Longitude": -93.083061079499998, "Latitude": 34.513974732500003, "Percentage": 9.7226714154794642 }, "geometry": { "type": "Point", "coordinates": [ -93.083061079499998, 34.513974732500003 ] } },
{ "type": "Feature", "properties": { "CountyFIPS": 5053, "Pop_With_Asthma": 171659.4, "TotalPopulation": 17853, "CountyState": "Grant, AR", "Longitude": -92.42160645749999, "Latitude": 34.294163192500001, "Percentage": 9.6151571164510177 }, "geometry": { "type": "Point", "coordinates": [ -92.42160645749999, 34.294163192500001 ] } },
{ "type": "Feature", "properties": { "CountyFIPS": 5055, "Pop_With_Asthma": 413991.3, "TotalPopulation": 42090, "CountyState": "Greene, AR", "Longitude": -90.520623563333331, "Latitude": 36.086244048888886, "Percentage": 9.8358588738417669 }, "geometry": { "type": "Point", "coordinates": [ -90.520623563333331, 36.086244048888886 ] } },
{ "type": "Feature", "properties": { "CountyFIPS": 5057, "Pop_With_Asthma": 242443.7, "TotalPopulation": 22609, "CountyState": "Hempstead, AR", "Longitude": -93.638282442000005, "Latitude": 33.69249032, "Percentage": 10.723326993675085 }, "geometry": { "type": "Point", "coordinates": [ -93.638282442, 33.69249032 ] } },
{ "type": "Feature", "properties": { "CountyFIPS": 5059, "Pop_With_Asthma": 338710.3, "TotalPopulation": 32923, "CountyState": "Hot Spring, AR", "Longitude": -92.88346618, "Latitude": 34.34294332571428, "Percentage": 10.28795371017222 }, "geometry": { "type": "Point", "coordinates": [ -92.88346618, 34.34294332571428 ] } },
{ "type": "Feature", "properties": { "CountyFIPS": 5061, "Pop_With_Asthma": 144842.5, "TotalPopulation": 13789, "CountyState": "Howard, AR", "Longitude": -93.932672823333334, "Latitude": 33.999793903333334, "Percentage": 10.504206251359779 }, "geometry": { "type": "Point", "coordinates": [ -93.932672823333334, 33.999793903333334 ] } },
{ "type": "Feature", "properties": { "CountyFIPS": 5063, "Pop_With_Asthma": 369665.7, "TotalPopulation": 36647, "CountyState": "Independence, AR", "Longitude": -91.599418411249999, "Latitude": 35.757810972499996, "Percentage": 10.087202226648838 }, "geometry": { "type": "Point", "coordinates": [ -91.599418411249999, 35.757810972499996 ] } },
{ "type": "Feature", "properties": { "CountyFIPS": 5065, "Pop_With_Asthma": 135752.7, "TotalPopulation": 13696, "CountyState": "Izard, AR", "Longitude": -91.919796977499999, "Latitude": 36.117003554999997, "Percentage": 9.9118501752336439 }, "geometry": { "type": "Point", "coordinates": [ -91.919796977499999, 36.117003555 ] } },
{ "type": "Feature", "properties": { "CountyFIPS": 5067, "Pop_With_Asthma": 201191.2, "TotalPopulation": 17997, "CountyState": "Jackson, AR", "Longitude": -91.259117578000001, "Latitude": 35.61102027, "Percentage": 11.179152080902373 }, "geometry": { "type": "Point", "coordinates": [ -91.259117578, 35.61102027 ] } },
{ "type": "Feature", "properties": { "CountyFIPS": 5069, "Pop_With_Asthma": 877154.5, "TotalPopulation": 77435, "CountyState": "Jefferson, AR", "Longitude": -92.026018429583345, "Latitude": 34.230634235416666, "Percentage": 11.327623167818171 }, "geometry": { "type": "Point", "coordinates": [ -92.026018429583345, 34.230634235416666 ] } },
{ "type": "Feature", "properties": { "CountyFIPS": 5071, "Pop_With_Asthma": 276021.6, "TotalPopulation": 25540, "CountyState": "Johnson, AR", "Longitude": -93.475598581666659, "Latitude": 35.489477726666671, "Percentage": 10.807423649177759 }, "geometry": { "type": "Point", "coordinates": [ -93.475598581666659, 35.489477726666671 ] } },
{ "type": "Feature", "properties": { "CountyFIPS": 5073, "Pop_With_Asthma": 85805.1, "TotalPopulation": 7645, "CountyState": "Lafayette, AR", "Longitude": -93.5943926, "Latitude": 33.290503485000002, "Percentage": 11.223688685415304 }, "geometry": { "type": "Point", "coordinates": [ -93.5943926, 33.290503485 ] } },
{ "type": "Feature", "properties": { "CountyFIPS": 5075, "Pop_With_Asthma": 178082.3, "TotalPopulation": 17415, "CountyState": "Lawrence, AR", "Longitude": -91.060580391666676, "Latitude": 36.045036446666664, "Percentage": 10.22579959804766 }, "geometry": { "type": "Point", "coordinates": [ -91.060580391666676, 36.045036446666664 ] } },
{ "type": "Feature", "properties": { "CountyFIPS": 5077, "Pop_With_Asthma": 117660.6, "TotalPopulation": 10424, "CountyState": "Lee, AR", "Longitude": -90.816783264999998, "Latitude": 34.775025154999994, "Percentage": 11.287471220260937 }, "geometry": { "type": "Point", "coordinates": [ -90.816783265, 34.775025155 ] } },
{ "type": "Feature", "properties": { "CountyFIPS": 5079, "Pop_With_Asthma": 143888.3, "TotalPopulation": 14134, "CountyState": "Lincoln, AR", "Longitude": -91.760975854999998, "Latitude": 33.959913372500004, "Percentage": 10.180295740766944 }, "geometry": { "type": "Point", "coordinates": [ -91.760975855, 33.959913372500004 ] } },
{ "type": "Feature", "properties": { "CountyFIPS": 5081, "Pop_With_Asthma": 137511.8, "TotalPopulation": 13171, "CountyState": "Little River, AR", "Longitude": -94.198424407499999, "Latitude": 33.674341842499999, "Percentage": 10.440498063928327 }, "geometry": { "type": "Point", "coordinates": [ -94.198424407499999, 33.674341842499999 ] } },
{ "type": "Feature", "properties": { "CountyFIPS": 5083, "Pop_With_Asthma": 225058.2, "TotalPopulation": 22353, "CountyState": "Logan, AR", "Longitude": -93.766875563333329, "Latitude": 35.213580318333335, "Percentage": 10.068366662192995 }, "geometry": { "type": "Point", "coordinates": [ -93.766875563333329, 35.213580318333335 ] } },
{ "type": "Feature", "properties": { "CountyFIPS": 5085, "Pop_With_Asthma": 664791.5, "TotalPopulation": 68356, "CountyState": "Lonoke, AR", "Longitude": -91.950794702499991, "Latitude": 34.857636261250001, "Percentage": 9.7254301012347124 }, "geometry": { "type": "Point", "coordinates": [ -91.950794702499991, 34.857636261250001 ] } },
{ "type": "Feature", "properties": { "CountyFIPS": 5087, "Pop_With_Asthma": 160924.2, "TotalPopulation": 15717, "CountyState": "Madison, AR", "Longitude": -93.735346187499999, "Latitude": 36.045833695, "Percentage": 10.238862378316473 }, "geometry": { "type": "Point", "coordinates": [ -93.735346187499999, 36.045833695 ] } },
{ "type": "Feature", "properties": { "CountyFIPS": 5089, "Pop_With_Asthma": 164413.6, "TotalPopulation": 16653, "CountyState": "Marion, AR", "Longitude": -92.683365097500001, "Latitude": 36.286349854999997, "Percentage": 9.8729117876658865 }, "geometry": { "type": "Point", "coordinates": [ -92.683365097500001, 36.286349855 ] } },
{ "type": "Feature", "properties": { "CountyFIPS": 5091, "Pop_With_Asthma": 466468.1, "TotalPopulation": 43444, "CountyState": "Miller, AR", "Longitude": -93.995463780909091, "Latitude": 33.414926378181818, "Percentage": 10.737227235061228 }, "geometry": { "type": "Point", "coordinates": [ -93.995463780909091, 33.414926378181818 ] } },
{ "type": "Feature", "properties": { "CountyFIPS": 5093, "Pop_With_Asthma": 524945.7, "TotalPopulation": 46480, "CountyState": "Mississippi, AR", "Longitude": -90.002723206666658, "Latitude": 35.811202054166664, "Percentage": 11.294012478485369 }, "geometry": { "type": "Point", "coordinates": [ -90.002723206666658, 35.811202054166664 ] } },
{ "type": "Feature", "properties": { "CountyFIPS": 5095, "Pop_With_Asthma": 92051.3, "TotalPopulation": 8149, "CountyState": "Monroe, AR", "Longitude": -91.234424573333328, "Latitude": 34.73478690666667, "Percentage": 11.296024052030923 }, "geometry": { "type": "Point", "coordinates": [ -91.234424573333328, 34.73478690666667 ] } },
{ "type": "Feature", "properties": { "CountyFIPS": 5097, "Pop_With_Asthma": 96696.3, "TotalPopulation": 9487, "CountyState": "Montgomery, AR", "Longitude": -93.637806986666661, "Latitude": 34.55841462, "Percentage": 10.192505533888479 }, "geometry": { "type": "Point", "coordinates": [ -93.637806986666661, 34.55841462 ] } },
{ "type": "Feature", "properties": { "CountyFIPS": 5099, "Pop_With_Asthma": 94004.0, "TotalPopulation": 8997, "CountyState": "Nevada, AR", "Longitude": -93.320609976666674, "Latitude": 33.67636901, "Percentage": 10.448371679448705 }, "geometry": { "type": "Point", "coordinates": [ -93.320609976666674, 33.67636901 ] } },
{ "type": "Feature", "properties": { "CountyFIPS": 5101, "Pop_With_Asthma": 82909.9, "TotalPopulation": 8330, "CountyState": "Newton, AR", "Longitude": -93.211658485000001, "Latitude": 35.962588124999996, "Percentage": 9.9531692677070822 }, "geometry": { "type": "Point", "coordinates": [ -93.211658485, 35.962588125 ] } },
{ "type": "Feature", "properties": { "CountyFIPS": 5103, "Pop_With_Asthma": 291488.6, "TotalPopulation": 26120, "CountyState": "Ouachita, AR", "Longitude": -92.863038383333333, "Latitude": 33.588372475, "Percentage": 11.15959418070444 }, "geometry": { "type": "Point", "coordinates": [ -92.863038383333333, 33.588372475 ] } },
{ "type": "Feature", "properties": { "CountyFIPS": 5105, "Pop_With_Asthma": 105622.1, "TotalPopulation": 10445, "CountyState": "Perry, AR", "Longitude": -92.873940446666666, "Latitude": 34.95631654, "Percentage": 10.112216371469604 }, "geometry": { "type": "Point", "coordinates": [ -92.873940446666666, 34.95631654 ] } },
{ "type": "Feature", "properties": { "CountyFIPS": 5107, "Pop_With_Asthma": 277040.5, "TotalPopulation": 21757, "CountyState": "Phillips, AR", "Longitude": -90.715612228333327, "Latitude": 34.509481908333335, "Percentage": 12.733396148366044 }, "geometry": { "type": "Point", "coordinates": [ -90.715612228333327, 34.509481908333335 ] } },
{ "type": "Feature", "properties": { "CountyFIPS": 5109, "Pop_With_Asthma": 113199.9, "TotalPopulation": 11291, "CountyState": "Pike, AR", "Longitude": -93.64061498333335, "Latitude": 34.16564025666667, "Percentage": 10.025675316623859 }, "geometry": { "type": "Point", "coordinates": [ -93.64061498333335, 34.16564025666667 ] } },
{ "type": "Feature", "properties": { "CountyFIPS": 5111, "Pop_With_Asthma": 257475.6, "TotalPopulation": 24583, "CountyState": "Poinsett, AR", "Longitude": -90.571714202857137, "Latitude": 35.595211355714284, "Percentage": 10.473725745433835 }, "geometry": { "type": "Point", "coordinates": [ -90.571714202857137, 35.595211355714284 ] } },
{ "type": "Feature", "properties": { "CountyFIPS": 5113, "Pop_With_Asthma": 216590.2, "TotalPopulation": 20662, "CountyState": "Polk, AR", "Longitude": -94.257331991666661, "Latitude": 34.493634901666667, "Percentage": 10.482537992449908 }, "geometry": { "type": "Point", "coordinates": [ -94.257331991666661, 34.493634901666667 ] } },
{ "type": "Feature", "properties": { "CountyFIPS": 5115, "Pop_With_Asthma": 628295.8, "TotalPopulation": 61754, "CountyState": "Pope, AR", "Longitude": -93.08648499, "Latitude": 35.323935407272728, "Percentage": 10.174171713573211 }, "geometry": { "type": "Point", "coordinates": [ -93.08648499, 35.323935407272728 ] } },
{ "type": "Feature", "properties": { "CountyFIPS": 5117, "Pop_With_Asthma": 89353.8, "TotalPopulation": 8715, "CountyState": "Prairie, AR", "Longitude": -91.544578643333338, "Latitude": 34.803889886666667, "Percentage": 10.252874354561103 }, "geometry": { "type": "Point", "coordinates": [ -91.544578643333338, 34.803889886666667 ] } },
{ "type": "Feature", "properties": { "CountyFIPS": 5119, "Pop_With_Asthma": 4006230.0, "TotalPopulation": 382746, "CountyState": "Pulaski, AR", "Longitude": -92.305524876063828, "Latitude": 34.769777756170214, "Percentage": 10.467072157514384 }, "geometry": { "type": "Point", "coordinates": [ -92.305524876063828, 34.769777756170214 ] } },
{ "type": "Feature", "properties": { "CountyFIPS": 5121, "Pop_With_Asthma": 190477.2, "TotalPopulation": 17969, "CountyState": "Randolph, AR", "Longitude": -90.9916729925, "Latitude": 36.305054882500002, "Percentage": 10.600322778117871 }, "geometry": { "type": "Point", "coordinates": [ -90.9916729925, 36.305054882500002 ] } },
{ "type": "Feature", "properties": { "CountyFIPS": 5123, "Pop_With_Asthma": 319840.4, "TotalPopulation": 28258, "CountyState": "St. Francis, AR", "Longitude": -90.771206838333342, "Latitude": 35.016492121666666, "Percentage": 11.318578809540663 }, "geometry": { "type": "Point", "coordinates": [ -90.771206838333342, 35.016492121666666 ] } },
{ "type": "Feature", "properties": { "CountyFIPS": 5125, "Pop_With_Asthma": 1039424.2, "TotalPopulation": 107118, "CountyState": "Saline, AR", "Longitude": -92.545066878571433, "Latitude": 34.599093592380953, "Percentage": 9.7035437554846045 }, "geometry": { "type": "Point", "coordinates": [ -92.545066878571433, 34.599093592380953 ] } },
{ "type": "Feature", "properties": { "CountyFIPS": 5127, "Pop_With_Asthma": 116891.0, "TotalPopulation": 11233, "CountyState": "Scott, AR", "Longitude": -94.068600143333342, "Latitude": 34.872224196666672, "Percentage": 10.406035787412089 }, "geometry": { "type": "Point", "coordinates": [ -94.068600143333342, 34.872224196666672 ] } },
{ "type": "Feature", "properties": { "CountyFIPS": 5129, "Pop_With_Asthma": 85257.5, "TotalPopulation": 8195, "CountyState": "Searcy, AR", "Longitude": -92.665667803333335, "Latitude": 35.91100516, "Percentage": 10.403599755948749 }, "geometry": { "type": "Point", "coordinates": [ -92.665667803333335, 35.91100516 ] } },
{ "type": "Feature", "properties": { "CountyFIPS": 5131, "Pop_With_Asthma": 1315527.2, "TotalPopulation": 125744, "CountyState": "Sebastian, AR", "Longitude": -94.357425213076922, "Latitude": 35.328728975769231, "Percentage": 10.461948084998092 }, "geometry": { "type": "Point", "coordinates": [ -94.357425213076922, 35.328728975769231 ] } },
{ "type": "Feature", "properties": { "CountyFIPS": 5133, "Pop_With_Asthma": 172812.9, "TotalPopulation": 17058, "CountyState": "Sevier, AR", "Longitude": -94.273027902500004, "Latitude": 34.004221375, "Percentage": 10.130900457263454 }, "geometry": { "type": "Point", "coordinates": [ -94.273027902500004, 34.004221375 ] } },
{ "type": "Feature", "properties": { "CountyFIPS": 5135, "Pop_With_Asthma": 179100.3, "TotalPopulation": 17264, "CountyState": "Sharp, AR", "Longitude": -91.468948642499996, "Latitude": 36.2183757, "Percentage": 10.374206441149212 }, "geometry": { "type": "Point", "coordinates": [ -91.468948642499996, 36.2183757 ] } },
{ "type": "Feature", "properties": { "CountyFIPS": 5137, "Pop_With_Asthma": 129258.3, "TotalPopulation": 12394, "CountyState": "Stone, AR", "Longitude": -92.097063620000014, "Latitude": 35.84759876, "Percentage": 10.429102791673392 }, "geometry": { "type": "Point", "coordinates": [ -92.097063620000014, 35.84759876 ] } },
{ "type": "Feature", "properties": { "CountyFIPS": 5139, "Pop_With_Asthma": 434095.1, "TotalPopulation": 41639, "CountyState": "Union, AR", "Longitude": -92.638440727000003, "Latitude": 33.214111742, "Percentage": 10.425204735944666 }, "geometry": { "type": "Point", "coordinates": [ -92.638440727, 33.214111742 ] } },
{ "type": "Feature", "properties": { "CountyFIPS": 5141, "Pop_With_Asthma": 174408.3, "TotalPopulation": 17295, "CountyState": "Van Buren, AR", "Longitude": -92.443487398000002, "Latitude": 35.58290357, "Percentage": 10.084319167389419 }, "geometry": { "type": "Point", "coordinates": [ -92.443487398, 35.58290357 ] } },
{ "type": "Feature", "properties": { "CountyFIPS": 5143, "Pop_With_Asthma": 2077056.0, "TotalPopulation": 203065, "CountyState": "Washington, AR", "Longitude": -94.174560478749996, "Latitude": 36.086118240312501, "Percentage": 10.228527811291951 }, "geometry": { "type": "Point", "coordinates": [ -94.174560478749996, 36.086118240312501 ] } },
{ "type": "Feature", "properties": { "CountyFIPS": 5145, "Pop_With_Asthma": 813372.9, "TotalPopulation": 77076, "CountyState": "White, AR", "Longitude": -91.744099614615379, "Latitude": 35.2567719, "Percentage": 10.552868597228709 }, "geometry": { "type": "Point", "coordinates": [ -91.744099614615379, 35.2567719 ] } },
{ "type": "Feature", "properties": { "CountyFIPS": 5147, "Pop_With_Asthma": 80072.4, "TotalPopulation": 7260, "CountyState": "Woodruff, AR", "Longitude": -91.258848825000001, "Latitude": 35.19704332, "Percentage": 11.029256198347108 }, "geometry": { "type": "Point", "coordinates": [ -91.258848825, 35.19704332 ] } },
{ "type": "Feature", "properties": { "CountyFIPS": 5149, "Pop_With_Asthma": 222951.6, "TotalPopulation": 22185, "CountyState": "Yell, AR", "Longitude": -93.331776811666671, "Latitude": 35.100392808333332, "Percentage": 10.049655172413791 }, "geometry": { "type": "Point", "coordinates": [ -93.331776811666671, 35.100392808333332 ] } },
{ "type": "Feature", "properties": { "CountyFIPS": 6001, "Pop_With_Asthma": 13648722.9, "TotalPopulation": 1510233, "CountyState": "Alameda, CA", "Longitude": -122.11931698217271, "Latitude": 37.720060543565459, "Percentage": 9.0374948104034285 }, "geometry": { "type": "Point", "coordinates": [ -122.119316982172705, 37.720060543565459 ] } },
{ "type": "Feature", "properties": { "CountyFIPS": 6003, "Pop_With_Asthma": 12807.5, "TotalPopulation": 1175, "CountyState": "Alpine, CA", "Longitude": -119.8207369, "Latitude": 38.59734337, "Percentage": 10.9 }, "geometry": { "type": "Point", "coordinates": [ -119.8207369, 38.59734337 ] } },
{ "type": "Feature", "properties": { "CountyFIPS": 6005, "Pop_With_Asthma": 378638.4, "TotalPopulation": 38091, "CountyState": "Amador, CA", "Longitude": -120.72594177777779, "Latitude": 38.41098436888889, "Percentage": 9.9403638654800357 }, "geometry": { "type": "Point", "coordinates": [ -120.725941777777791, 38.41098436888889 ] } },
{ "type": "Feature", "properties": { "CountyFIPS": 6007, "Pop_With_Asthma": 2358612.6, "TotalPopulation": 220000, "CountyState": "Butte, CA", "Longitude": -121.70773, "Latitude": 39.663387559607848, "Percentage": 10.720966363636364 }, "geometry": { "type": "Point", "coordinates": [ -121.70773, 39.663387559607848 ] } },
{ "type": "Feature", "properties": { "CountyFIPS": 6009, "Pop_With_Asthma": 472573.9, "TotalPopulation": 45578, "CountyState": "Calaveras, CA", "Longitude": -120.53046873000001, "Latitude": 38.191186792000003, "Percentage": 10.368465048927115 }, "geometry": { "type": "Point", "coordinates": [ -120.53046873000001, 38.191186792 ] } },
{ "type": "Feature", "properties": { "CountyFIPS": 6011, "Pop_With_Asthma": 218428.4, "TotalPopulation": 21419, "CountyState": "Colusa, CA", "Longitude": -122.13840458, "Latitude": 39.181927708000003, "Percentage": 10.197880386572669 }, "geometry": { "type": "Point", "coordinates": [ -122.13840458, 39.181927708 ] } },
{ "type": "Feature", "properties": { "CountyFIPS": 6013, "Pop_With_Asthma": 9883583.9, "TotalPopulation": 1049025, "CountyState": "Contra Costa, CA", "Longitude": -122.04853149565217, "Latitude": 37.935672147391308, "Percentage": 9.4216857558208815 }, "geometry": { "type": "Point", "coordinates": [ -122.048531495652171, 37.935672147391308 ] } },
{ "type": "Feature", "properties": { "CountyFIPS": 6015, "Pop_With_Asthma": 309428.0, "TotalPopulation": 28610, "CountyState": "Del Norte, CA", "Longitude": -124.1143213, "Latitude": 41.753551344285711, "Percentage": 10.815379238028662 }, "geometry": { "type": "Point", "coordinates": [ -124.1143213, 41.753551344285711 ] } },
{ "type": "Feature", "properties": { "CountyFIPS": 6017, "Pop_With_Asthma": 1804440.2, "TotalPopulation": 181058, "CountyState": "El Dorado, CA", "Longitude": -120.64823348571429, "Latitude": 38.75888372595238, "Percentage": 9.9660893194445972 }, "geometry": { "type": "Point", "coordinates": [ -120.648233485714286, 38.75888372595238 ] } },
{ "type": "Feature", "properties": { "CountyFIPS": 6019, "Pop_With_Asthma": 9939106.8, "TotalPopulation": 930450, "CountyState": "Fresno, CA", "Longitude": -119.765848659799, "Latitude": 36.745880293618086, "Percentage": 10.682042882476223 }, "geometry": { "type": "Point", "coordinates": [ -119.765848659799005, 36.745880293618086 ] } },
{ "type": "Feature", "properties": { "CountyFIPS": 6021, "Pop_With_Asthma": 300716.3, "TotalPopulation": 28122, "CountyState": "Glenn, CA", "Longitude": -122.19153648333334, "Latitude": 39.639634321666669, "Percentage": 10.693275727188677 }, "geometry": { "type": "Point", "coordinates": [ -122.191536483333337, 39.639634321666669 ] } },
{ "type": "Feature", "properties": { "CountyFIPS": 6023, "Pop_With_Asthma": 1507473.1, "TotalPopulation": 134623, "CountyState": "Humboldt, CA", "Longitude": -124.04500532666665, "Latitude": 40.750909760333336, "Percentage": 11.197738127957333 }, "geometry": { "type": "Point", "coordinates": [ -124.045005326666654, 40.750909760333336 ] } },
{ "type": "Feature", "properties": { "CountyFIPS": 6025, "Pop_With_Asthma": 1792901.3, "TotalPopulation": 174528, "CountyState": "Imperial, CA", "Longitude": -115.51041088064515, "Latitude": 32.870708126774197, "Percentage": 10.272857650348369 }, "geometry": { "type": "Point", "coordinates": [ -115.510410880645153, 32.870708126774197 ] } },
{ "type": "Feature", "properties": { "CountyFIPS": 6027, "Pop_With_Asthma": 186539.8, "TotalPopulation": 18546, "CountyState": "Inyo, CA", "Longitude": -118.10372453333332, "Latitude": 37.099565868333336, "Percentage": 10.058222797368705 }, "geometry": { "type": "Point", "coordinates": [ -118.10372453333332, 37.099565868333336 ] } },
{ "type": "Feature", "properties": { "CountyFIPS": 6029, "Pop_With_Asthma": 8846274.5, "TotalPopulation": 839631, "CountyState": "Kern, CA", "Longitude": -118.93075292715231, "Latitude": 35.363025387615892, "Percentage": 10.535907440292224 }, "geometry": { "type": "Point", "coordinates": [ -118.930752927152312, 35.363025387615892 ] } },
{ "type": "Feature", "properties": { "CountyFIPS": 6031, "Pop_With_Asthma": 1591989.9, "TotalPopulation": 152982, "CountyState": "Kings, CA", "Longitude": -119.70943289629631, "Latitude": 36.241372967037037, "Percentage": 10.406387025924618 }, "geometry": { "type": "Point", "coordinates": [ -119.709432896296306, 36.241372967037037 ] } },
{ "type": "Feature", "properties": { "CountyFIPS": 6033, "Pop_With_Asthma": 716615.1, "TotalPopulation": 64665, "CountyState": "Lake, CA", "Longitude": -122.72477144666667, "Latitude": 39.005274614000001, "Percentage": 11.0819624217119 }, "geometry": { "type": "Point", "coordinates": [ -122.724771446666665, 39.005274614 ] } },
{ "type": "Feature", "properties": { "CountyFIPS": 6035, "Pop_With_Asthma": 352356.1, "TotalPopulation": 34895, "CountyState": "Lassen, CA", "Longitude": -120.58111338888888, "Latitude": 40.4366765, "Percentage": 10.097609972775469 }, "geometry": { "type": "Point", "coordinates": [ -120.58111338888888, 40.4366765 ] } },
{ "type": "Feature", "properties": { "CountyFIPS": 6037, "Pop_With_Asthma": 89556825.7, "TotalPopulation": 9818466, "CountyState": "Los Angeles, CA", "Longitude": -118.25176992551636, "Latitude": 34.065915865176414, "Percentage": 9.1212645335839628 }, "geometry": { "type": "Point", "coordinates": [ -118.251769925516356, 34.065915865176414 ] } },
{ "type": "Feature", "properties": { "CountyFIPS": 6039, "Pop_With_Asthma": 1642822.0, "TotalPopulation": 150865, "CountyState": "Madera, CA", "Longitude": -119.97142928695652, "Latitude": 37.072202694782611, "Percentage": 10.889351406886952 }, "geometry": { "type": "Point", "coordinates": [ -119.971429286956521, 37.072202694782611 ] } },
{ "type": "Feature", "properties": { "CountyFIPS": 6041, "Pop_With_Asthma": 2367885.7, "TotalPopulation": 252409, "CountyState": "Marin, CA", "Longitude": -122.55392171818181, "Latitude": 37.986109225999996, "Percentage": 9.3811460764077363 }, "geometry": { "type": "Point", "coordinates": [ -122.553921718181812, 37.986109226 ] } },
{ "type": "Feature", "properties": { "CountyFIPS": 6043, "Pop_With_Asthma": 192299.1, "TotalPopulation": 18251, "CountyState": "Mariposa, CA", "Longitude": -119.92497781666667, "Latitude": 37.555414485, "Percentage": 10.536359651525943 }, "geometry": { "type": "Point", "coordinates": [ -119.924977816666669, 37.555414485 ] } },
{ "type": "Feature", "properties": { "CountyFIPS": 6045, "Pop_With_Asthma": 931813.3, "TotalPopulation": 87841, "CountyState": "Mendocino, CA", "Longitude": -123.39883629000001, "Latitude": 39.291208846000004, "Percentage": 10.607954144420031 }, "geometry": { "type": "Point", "coordinates": [ -123.39883629, 39.291208846 ] } },
{ "type": "Feature", "properties": { "CountyFIPS": 6047, "Pop_With_Asthma": 2763093.3, "TotalPopulation": 255793, "CountyState": "Merced, CA", "Longitude": -120.60213954285715, "Latitude": 37.293128917551023, "Percentage": 10.802067687544225 }, "geometry": { "type": "Point", "coordinates": [ -120.602139542857145, 37.293128917551023 ] } },
{ "type": "Feature", "properties": { "CountyFIPS": 6049, "Pop_With_Asthma": 105906.9, "TotalPopulation": 9686, "CountyState": "Modoc, CA", "Longitude": -120.6542456, "Latitude": 41.556303165000003, "Percentage": 10.93401817055544 }, "geometry": { "type": "Point", "coordinates": [ -120.6542456, 41.556303165 ] } },
{ "type": "Feature", "properties": { "CountyFIPS": 6051, "Pop_With_Asthma": 141638.7, "TotalPopulation": 14202, "CountyState": "Mono, CA", "Longitude": -118.92750373333332, "Latitude": 37.851395493333335, "Percentage": 9.973151668779046 }, "geometry": { "type": "Point", "coordinates": [ -118.927503733333324, 37.851395493333335 ] } },
{ "type": "Feature", "properties": { "CountyFIPS": 6053, "Pop_With_Asthma": 4064366.2, "TotalPopulation": 415050, "CountyState": "Monterey, CA", "Longitude": -121.68135479456522, "Latitude": 36.614587731195655, "Percentage": 9.7924736778701362 }, "geometry": { "type": "Point", "coordinates": [ -121.681354794565223, 36.614587731195655 ] } },
{ "type": "Feature", "properties": { "CountyFIPS": 6055, "Pop_With_Asthma": 1305170.9, "TotalPopulation": 136484, "CountyState": "Napa, CA", "Longitude": -122.32292057750001, "Latitude": 38.342258053249999, "Percentage": 9.5628124908414165 }, "geometry": { "type": "Point", "coordinates": [ -122.322920577500014, 38.342258053249999 ] } },
{ "type": "Feature", "properties": { "CountyFIPS": 6057, "Pop_With_Asthma": 984143.1, "TotalPopulation": 98764, "CountyState": "Nevada, CA", "Longitude": -120.86850741000001, "Latitude": 39.22548038, "Percentage": 9.9645933741039237 }, "geometry": { "type": "Point", "coordinates": [ -120.86850741, 39.22548038 ] } },
{ "type": "Feature", "properties": { "CountyFIPS": 6059, "Pop_With_Asthma": 27474718.6, "TotalPopulation": 3010188, "CountyState": "Orange, CA", "Longitude": -117.8649062087931, "Latitude": 33.733048444948274, "Percentage": 9.1272434146970234 }, "geometry": { "type": "Point", "coordinates": [ -117.864906208793101, 33.733048444948274 ] } },
{ "type": "Feature", "properties": { "CountyFIPS": 6061, "Pop_With_Asthma": 3335538.7, "TotalPopulation": 348432, "CountyState": "Placer, CA", "Longitude": -121.10588502261905, "Latitude": 38.872488315714286, "Percentage": 9.5729976006796171 }, "geometry": { "type": "Point", "coordinates": [ -121.105885022619049, 38.872488315714286 ] } },
{ "type": "Feature", "properties": { "CountyFIPS": 6063, "Pop_With_Asthma": 205629.4, "TotalPopulation": 20007, "CountyState": "Plumas, CA", "Longitude": -120.91500855714285, "Latitude": 40.022904488571427, "Percentage": 10.277872744539412 }, "geometry": { "type": "Point", "coordinates": [ -120.915008557142855, 40.022904488571427 ] } },
{ "type": "Feature", "properties": { "CountyFIPS": 6065, "Pop_With_Asthma": 22016125.4, "TotalPopulation": 2189632, "CountyState": "Riverside, CA", "Longitude": -117.0145513022124, "Latitude": 33.809440503960175, "Percentage": 10.054714856195012 }, "geometry": { "type": "Point", "coordinates": [ -117.014551302212396, 33.809440503960175 ] } },
{ "type": "Feature", "properties": { "CountyFIPS": 6067, "Pop_With_Asthma": 15072967.2, "TotalPopulation": 1418788, "CountyState": "Sacramento, CA", "Longitude": -121.37986853059937, "Latitude": 38.571617109716087, "Percentage": 10.623833299971524 }, "geometry": { "type": "Point", "coordinates": [ -121.379868530599367, 38.571617109716087 ] } },
{ "type": "Feature", "properties": { "CountyFIPS": 6069, "Pop_With_Asthma": 537247.5, "TotalPopulation": 55269, "CountyState": "San Benito, CA", "Longitude": -121.36804239090908, "Latitude": 36.81893929, "Percentage": 9.7205938229387172 }, "geometry": { "type": "Point", "coordinates": [ -121.368042390909082, 36.81893929 ] } },
{ "type": "Feature", "properties": { "CountyFIPS": 6071, "Pop_With_Asthma": 21327116.5, "TotalPopulation": 2035210, "CountyState": "San Bernardino, CA", "Longitude": -117.32809067255434, "Latitude": 34.188456193396739, "Percentage": 10.479074149596356 }, "geometry": { "type": "Point", "coordinates": [ -117.328090672554339, 34.188456193396739 ] } },
{ "type": "Feature", "properties": { "CountyFIPS": 6073, "Pop_With_Asthma": 28351079.9, "TotalPopulation": 3095311, "CountyState": "San Diego, CA", "Longitude": -117.10973501469648, "Latitude": 32.869108515047927, "Percentage": 9.1593639217513196 }, "geometry": { "type": "Point", "coordinates": [ -117.109735014696483, 32.869108515047927 ] } },
{ "type": "Feature", "properties": { "CountyFIPS": 6075, "Pop_With_Asthma": 6819030.9, "TotalPopulation": 805235, "CountyState": "San Francisco, CA", "Longitude": -122.43618913333333, "Latitude": 37.761059879589745, "Percentage": 8.4683737045707161 }, "geometry": { "type": "Point", "coordinates": [ -122.436189133333329, 37.761059879589745 ] } },
{ "type": "Feature", "properties": { "CountyFIPS": 6077, "Pop_With_Asthma": 6980445.3, "TotalPopulation": 685306, "CountyState": "San Joaquin, CA", "Longitude": -121.29218060431654, "Latitude": 37.945443158417262, "Percentage": 10.185880905755969 }, "geometry": { "type": "Point", "coordinates": [ -121.292180604316542, 37.945443158417262 ] } },
{ "type": "Feature", "properties": { "CountyFIPS": 6079, "Pop_With_Asthma": 2672366.8, "TotalPopulation": 269637, "CountyState": "San Luis Obispo, CA", "Longitude": -120.67672325849057, "Latitude": 35.351283317924526, "Percentage": 9.910979576245099 }, "geometry": { "type": "Point", "coordinates": [ -120.676723258490568, 35.351283317924526 ] } },
{ "type": "Feature", "properties": { "CountyFIPS": 6081, "Pop_With_Asthma": 6077727.6, "TotalPopulation": 718451, "CountyState": "San Mateo, CA", "Longitude": -122.33411394038463, "Latitude": 37.55956446634616, "Percentage": 8.4594879817830293 }, "geometry": { "type": "Point", "coordinates": [ -122.334113940384626, 37.55956446634616 ] } },
{ "type": "Feature", "properties": { "CountyFIPS": 6083, "Pop_With_Asthma": 4231361.1, "TotalPopulation": 423874, "CountyState": "Santa Barbara, CA", "Longitude": -120.06543254597702, "Latitude": 34.621558955172411, "Percentage": 9.9825917607590924 }, "geometry": { "type": "Point", "coordinates": [ -120.065432545977018, 34.621558955172411 ] } },
{ "type": "Feature", "properties": { "CountyFIPS": 6085, "Pop_With_Asthma": 14426241.6, "TotalPopulation": 1781642, "CountyState": "Santa Clara, CA", "Longitude": -121.91246370860215, "Latitude": 37.316947274516131, "Percentage": 8.0971607090537834 }, "geometry": { "type": "Point", "coordinates": [ -121.912463708602147, 37.316947274516131 ] } },
{ "type": "Feature", "properties": { "CountyFIPS": 6087, "Pop_With_Asthma": 2631392.3, "TotalPopulation": 262382, "CountyState": "Santa Cruz, CA", "Longitude": -121.94320865384614, "Latitude": 36.990897306153848, "Percentage": 10.028859830323725 }, "geometry": { "type": "Point", "coordinates": [ -121.943208653846142, 36.990897306153848 ] } },
{ "type": "Feature", "properties": { "CountyFIPS": 6089, "Pop_With_Asthma": 1924282.1, "TotalPopulation": 177223, "CountyState": "Shasta, CA", "Longitude": -122.29562373958333, "Latitude": 40.593783963124999, "Percentage": 10.857970466587295 }, "geometry": { "type": "Point", "coordinates": [ -122.295623739583334, 40.593783963124999 ] } },
{ "type": "Feature", "properties": { "CountyFIPS": 6091, "Pop_With_Asthma": 34020.0, "TotalPopulation": 3240, "CountyState": "Sierra, CA", "Longitude": -120.5160821, "Latitude": 39.58038278, "Percentage": 10.5 }, "geometry": { "type": "Point", "coordinates": [ -120.5160821, 39.58038278 ] } },
{ "type": "Feature", "properties": { "CountyFIPS": 6093, "Pop_With_Asthma": 491615.4, "TotalPopulation": 44900, "CountyState": "Siskiyou, CA", "Longitude": -122.47380899285714, "Latitude": 41.62631148642857, "Percentage": 10.949118040089088 }, "geometry": { "type": "Point", "coordinates": [ -122.473808992857144, 41.62631148642857 ] } },
{ "type": "Feature", "properties": { "CountyFIPS": 6095, "Pop_With_Asthma": 4135436.4, "TotalPopulation": 413328, "CountyState": "Solano, CA", "Longitude": -122.0829775768421, "Latitude": 38.22580533073684, "Percentage": 10.005217164092439 }, "geometry": { "type": "Point", "coordinates": [ -122.082977576842097, 38.22580533073684 ] } },
{ "type": "Feature", "properties": { "CountyFIPS": 6097, "Pop_With_Asthma": 4834888.4, "TotalPopulation": 483878, "CountyState": "Sonoma, CA", "Longitude": -122.7276853151515, "Latitude": 38.41537748141414, "Percentage": 9.9919574768846697 }, "geometry": { "type": "Point", "coordinates": [ -122.727685315151504, 38.41537748141414 ] } },
{ "type": "Feature", "properties": { "CountyFIPS": 6099, "Pop_With_Asthma": 5315362.6, "TotalPopulation": 514453, "CountyState": "Stanislaus, CA", "Longitude": -120.95504996276597, "Latitude": 37.622234268936168, "Percentage": 10.332066486151309 }, "geometry": { "type": "Point", "coordinates": [ -120.955049962765969, 37.622234268936168 ] } },
{ "type": "Feature", "properties": { "CountyFIPS": 6101, "Pop_With_Asthma": 973405.0, "TotalPopulation": 94737, "CountyState": "Sutter, CA", "Longitude": -121.65041647142856, "Latitude": 39.121264415238095, "Percentage": 10.274813430866503 }, "geometry": { "type": "Point", "coordinates": [ -121.650416471428557, 39.121264415238095 ] } },
{ "type": "Feature", "properties": { "CountyFIPS": 6103, "Pop_With_Asthma": 712042.7, "TotalPopulation": 63463, "CountyState": "Tehama, CA", "Longitude": -122.21451766363636, "Latitude": 40.10648572, "Percentage": 11.21980839229157 }, "geometry": { "type": "Point", "coordinates": [ -122.214517663636357, 40.10648572 ] } },
{ "type": "Feature", "properties": { "CountyFIPS": 6105, "Pop_With_Asthma": 150568.5, "TotalPopulation": 13786, "CountyState": "Trinity, CA", "Longitude": -123.07507536, "Latitude": 40.69374304, "Percentage": 10.921840998114028 }, "geometry": { "type": "Point", "coordinates": [ -123.07507536, 40.69374304 ] } },
{ "type": "Feature", "properties": { "CountyFIPS": 6107, "Pop_With_Asthma": 4919497.5, "TotalPopulation": 442179, "CountyState": "Tulare, CA", "Longitude": -119.22683293589743, "Latitude": 36.252204560769236, "Percentage": 11.125579233749228 }, "geometry": { "type": "Point", "coordinates": [ -119.226832935897434, 36.252204560769236 ] } },
{ "type": "Feature", "properties": { "CountyFIPS": 6109, "Pop_With_Asthma": 563507.8, "TotalPopulation": 55365, "CountyState": "Tuolumne, CA", "Longitude": -120.24339427272729, "Latitude": 37.982231312727272, "Percentage": 10.178051115325566 }, "geometry": { "type": "Point", "coordinates": [ -120.243394272727286, 37.982231312727272 ] } },
{ "type": "Feature", "properties": { "CountyFIPS": 6111, "Pop_With_Asthma": 7886140.2, "TotalPopulation": 823318, "CountyState": "Ventura, CA", "Longitude": -119.02755305202312, "Latitude": 34.241007873410403, "Percentage": 9.578486319988146 }, "geometry": { "type": "Point", "coordinates": [ -119.027553052023123, 34.241007873410403 ] } },
{ "type": "Feature", "properties": { "CountyFIPS": 6113, "Pop_With_Asthma": 2009004.4, "TotalPopulation": 200849, "CountyState": "Yolo, CA", "Longitude": -121.72809044878048, "Latitude": 38.602138052195123, "Percentage": 10.002561128011591 }, "geometry": { "type": "Point", "coordinates": [ -121.728090448780478, 38.602138052195123 ] } },
{ "type": "Feature", "properties": { "CountyFIPS": 6115, "Pop_With_Asthma": 779502.5, "TotalPopulation": 72155, "CountyState": "Yuba, CA", "Longitude": -121.49297977142858, "Latitude": 39.143812538571424, "Percentage": 10.803166793707989 }, "geometry": { "type": "Point", "coordinates": [ -121.49297977142858, 39.143812538571424 ] } },
{ "type": "Feature", "properties": { "CountyFIPS": 8001, "Pop_With_Asthma": 4504342.8, "TotalPopulation": 441603, "CountyState": "Adams, CO", "Longitude": -104.92839953645834, "Latitude": 39.87274767864583, "Percentage": 10.199982337076515 }, "geometry": { "type": "Point", "coordinates": [ -104.928399536458343, 39.87274767864583 ] } },
{ "type": "Feature", "properties": { "CountyFIPS": 8003, "Pop_With_Asthma": 164649.4, "TotalPopulation": 15445, "CountyState": "Alamosa, CO", "Longitude": -105.860286325, "Latitude": 37.501102575000004, "Percentage": 10.660369051472967 }, "geometry": { "type": "Point", "coordinates": [ -105.860286325, 37.501102575 ] } },
{ "type": "Feature", "properties": { "CountyFIPS": 8005, "Pop_With_Asthma": 5717962.4, "TotalPopulation": 572003, "CountyState": "Arapahoe, CO", "Longitude": -104.85378203265306, "Latitude": 39.644887110952382, "Percentage": 9.9963853336433548 }, "geometry": { "type": "Point", "coordinates": [ -104.853782032653058, 39.644887110952382 ] } },
{ "type": "Feature", "properties": { "CountyFIPS": 8007, "Pop_With_Asthma": 118490.6, "TotalPopulation": 12084, "CountyState": "Archuleta, CO", "Longitude": -107.0962509, "Latitude": 37.21212295, "Percentage": 9.8055776233035417 }, "geometry": { "type": "Point", "coordinates": [ -107.0962509, 37.21212295 ] } },
{ "type": "Feature", "properties": { "CountyFIPS": 8009, "Pop_With_Asthma": 40594.0, "TotalPopulation": 3788, "CountyState": "Baca, CO", "Longitude": -102.5796653, "Latitude": 37.362348095000002, "Percentage": 10.716473072861669 }, "geometry": { "type": "Point", "coordinates": [ -102.5796653, 37.362348095 ] } },
{ "type": "Feature", "properties": { "CountyFIPS": 8011, "Pop_With_Asthma": 64990.0, "TotalPopulation": 6499, "CountyState": "Bent, CO", "Longitude": -103.0716784, "Latitude": 37.95511757, "Percentage": 10.0 }, "geometry": { "type": "Point", "coordinates": [ -103.0716784, 37.95511757 ] } },
{ "type": "Feature", "properties": { "CountyFIPS": 8013, "Pop_With_Asthma": 2855054.5, "TotalPopulation": 294567, "CountyState": "Boulder, CO", "Longitude": -105.19172170735294, "Latitude": 40.061721736911764, "Percentage": 9.6923772859824755 }, "geometry": { "type": "Point", "coordinates": [ -105.19172170735294, 40.061721736911764 ] } },
{ "type": "Feature", "properties": { "CountyFIPS": 8014, "Pop_With_Asthma": 508807.4, "TotalPopulation": 55889, "CountyState": "Broomfield, CO", "Longitude": -105.05734575333332, "Latitude": 39.936888137333334, "Percentage": 9.1038916423625409 }, "geometry": { "type": "Point", "coordinates": [ -105.057345753333323, 39.936888137333334 ] } },
{ "type": "Feature", "properties": { "CountyFIPS": 8015, "Pop_With_Asthma": 171300.2, "TotalPopulation": 17809, "CountyState": "Chaffee, CO", "Longitude": -106.11435732, "Latitude": 38.677908251999995, "Percentage": 9.6187433320231346 }, "geometry": { "type": "Point", "coordinates": [ -106.11435732, 38.677908252 ] } },
{ "type": "Feature", "properties": { "CountyFIPS": 8017, "Pop_With_Asthma": 18360.0, "TotalPopulation": 1836, "CountyState": "Cheyenne, CO", "Longitude": -102.6034043, "Latitude": 38.82793184, "Percentage": 10.0 }, "geometry": { "type": "Point", "coordinates": [ -102.6034043, 38.82793184 ] } },
{ "type": "Feature", "properties": { "CountyFIPS": 8019, "Pop_With_Asthma": 86731.0, "TotalPopulation": 9088, "CountyState": "Clear Creek, CO", "Longitude": -105.60481453333334, "Latitude": 39.710865093333332, "Percentage": 9.543463908450704 }, "geometry": { "type": "Point", "coordinates": [ -105.604814533333339, 39.710865093333332 ] } },
{ "type": "Feature", "properties": { "CountyFIPS": 8021, "Pop_With_Asthma": 82123.1, "TotalPopulation": 8256, "CountyState": "Conejos, CO", "Longitude": -106.08296905, "Latitude": 37.160021834999995, "Percentage": 9.9470809108527138 }, "geometry": { "type": "Point", "coordinates": [ -106.08296905, 37.160021835 ] } },
{ "type": "Feature", "properties": { "CountyFIPS": 8023, "Pop_With_Asthma": 36767.8, "TotalPopulation": 3524, "CountyState": "Costilla, CO", "Longitude": -105.42756995, "Latitude": 37.28093869, "Percentage": 10.433541430192962 }, "geometry": { "type": "Point", "coordinates": [ -105.42756995, 37.28093869 ] } },
{ "type": "Feature", "properties": { "CountyFIPS": 8025, "Pop_With_Asthma": 57065.4, "TotalPopulation": 5823, "CountyState": "Crowley, CO", "Longitude": -103.7848366, "Latitude": 38.3266613, "Percentage": 9.8 }, "geometry": { "type": "Point", "coordinates": [ -103.7848366, 38.3266613 ] } },
{ "type": "Feature", "properties": { "CountyFIPS": 8027, "Pop_With_Asthma": 41699.0, "TotalPopulation": 4255, "CountyState": "Custer, CO", "Longitude": -105.3674737, "Latitude": 38.10867615, "Percentage": 9.8 }, "geometry": { "type": "Point", "coordinates": [ -105.3674737, 38.10867615 ] } },
{ "type": "Feature", "properties": { "CountyFIPS": 8029, "Pop_With_Asthma": 327383.8, "TotalPopulation": 30952, "CountyState": "Delta, CO", "Longitude": -107.91958207142856, "Latitude": 38.839330915714285, "Percentage": 10.577145257172395 }, "geometry": { "type": "Point", "coordinates": [ -107.919582071428565, 38.839330915714285 ] } },
{ "type": "Feature", "properties": { "CountyFIPS": 8031, "Pop_With_Asthma": 6049633.5, "TotalPopulation": 600158, "CountyState": "Denver, CO", "Longitude": -104.95978323986013, "Latitude": 39.720946770629375, "Percentage": 10.080068082071721 }, "geometry": { "type": "Point", "coordinates": [ -104.95978323986013, 39.720946770629375 ] } },
{ "type": "Feature", "properties": { "CountyFIPS": 8033, "Pop_With_Asthma": 20433.6, "TotalPopulation": 2064, "CountyState": "Dolores, CO", "Longitude": -108.5172005, "Latitude": 37.75160325, "Percentage": 9.9 }, "geometry": { "type": "Point", "coordinates": [ -108.5172005, 37.75160325 ] } },
{ "type": "Feature", "properties": { "CountyFIPS": 8035, "Pop_With_Asthma": 2572921.7, "TotalPopulation": 285465, "CountyState": "Douglas, CO", "Longitude": -104.88672562295082, "Latitude": 39.477084959344261, "Percentage": 9.0130898709123723 }, "geometry": { "type": "Point", "coordinates": [ -104.88672562295082, 39.477084959344261 ] } },
{ "type": "Feature", "properties": { "CountyFIPS": 8037, "Pop_With_Asthma": 493622.9, "TotalPopulation": 52197, "CountyState": "Eagle, CO", "Longitude": -106.61049675714285, "Latitude": 39.590228826428572, "Percentage": 9.4569208958369266 }, "geometry": { "type": "Point", "coordinates": [ -106.610496757142855, 39.590228826428572 ] } },
{ "type": "Feature", "properties": { "CountyFIPS": 8039, "Pop_With_Asthma": 228294.7, "TotalPopulation": 23086, "CountyState": "Elbert, CO", "Longitude": -104.4463883, "Latitude": 39.351593055714282, "Percentage": 9.8888807069219453 }, "geometry": { "type": "Point", "coordinates": [ -104.4463883, 39.351593055714282 ] } },
{ "type": "Feature", "properties": { "CountyFIPS": 8041, "Pop_With_Asthma": 6283443.9, "TotalPopulation": 622263, "CountyState": "El Paso, CO", "Longitude": -104.76663457461538, "Latitude": 38.864061445923078, "Percentage": 10.097730220180214 }, "geometry": { "type": "Point", "coordinates": [ -104.766634574615381, 38.864061445923078 ] } },
{ "type": "Feature", "properties": { "CountyFIPS": 8043, "Pop_With_Asthma": 459000.4, "TotalPopulation": 46824, "CountyState": "Fremont, CO", "Longitude": -105.20555515714285, "Latitude": 38.436356902857142, "Percentage": 9.8026738424739435 }, "geometry": { "type": "Point", "coordinates": [ -105.205555157142854, 38.436356902857142 ] } },
{ "type": "Feature", "properties": { "CountyFIPS": 8045, "Pop_With_Asthma": 547026.1, "TotalPopulation": 56389, "CountyState": "Garfield, CO", "Longitude": -107.51559502727272, "Latitude": 39.549312197272727, "Percentage": 9.7009363528347716 }, "geometry": { "type": "Point", "coordinates": [ -107.515595027272724, 39.549312197272727 ] } },
{ "type": "Feature", "properties": { "CountyFIPS": 8047, "Pop_With_Asthma": 51145.4, "TotalPopulation": 5441, "CountyState": "Gilpin, CO", "Longitude": -105.5225294, "Latitude": 39.85753266, "Percentage": 9.4 }, "geometry": { "type": "Point", "coordinates": [ -105.5225294, 39.85753266 ] } },
{ "type": "Feature", "properties": { "CountyFIPS": 8049, "Pop_With_Asthma": 143505.8, "TotalPopulation": 14843, "CountyState": "Grand, CO", "Longitude": -106.00911, "Latitude": 40.07991198, "Percentage": 9.6682476588290776 }, "geometry": { "type": "Point", "coordinates": [ -106.00911, 40.07991198 ] } },
{ "type": "Feature", "properties": { "CountyFIPS": 8051, "Pop_With_Asthma": 151072.2, "TotalPopulation": 15324, "CountyState": "Gunnison, CO", "Longitude": -106.961913325, "Latitude": 38.677169075000002, "Percentage": 9.8585356303837131 }, "geometry": { "type": "Point", "coordinates": [ -106.961913325, 38.677169075 ] } },
{ "type": "Feature", "properties": { "CountyFIPS": 8053, "Pop_With_Asthma": 8177.1, "TotalPopulation": 843, "CountyState": "Hinsdale, CO", "Longitude": -107.3003094, "Latitude": 37.82134672, "Percentage": 9.7 }, "geometry": { "type": "Point", "coordinates": [ -107.3003094, 37.82134672 ] } },
{ "type": "Feature", "properties": { "CountyFIPS": 8055, "Pop_With_Asthma": 65080.2, "TotalPopulation": 6711, "CountyState": "Huerfano, CO", "Longitude": -104.86480615, "Latitude": 37.663319125000001, "Percentage": 9.6975413500223517 }, "geometry": { "type": "Point", "coordinates": [ -104.86480615, 37.663319125 ] } },
{ "type": "Feature", "properties": { "CountyFIPS": 8057, "Pop_With_Asthma": 14079.4, "TotalPopulation": 1394, "CountyState": "Jackson, CO", "Longitude": -106.3430512, "Latitude": 40.66656324, "Percentage": 10.1 }, "geometry": { "type": "Point", "coordinates": [ -106.3430512, 40.66656324 ] } },
{ "type": "Feature", "properties": { "CountyFIPS": 8059, "Pop_With_Asthma": 4956251.7, "TotalPopulation": 534543, "CountyState": "Jefferson, CO", "Longitude": -105.13281904671533, "Latitude": 39.717759326350368, "Percentage": 9.2719420140194533 }, "geometry": { "type": "Point", "coordinates": [ -105.132819046715326, 39.717759326350368 ] } },
{ "type": "Feature", "properties": { "CountyFIPS": 8061, "Pop_With_Asthma": 14399.4, "TotalPopulation": 1398, "CountyState": "Kiowa, CO", "Longitude": -102.7403913, "Latitude": 38.43268583, "Percentage": 10.3 }, "geometry": { "type": "Point", "coordinates": [ -102.7403913, 38.43268583 ] } },
{ "type": "Feature", "properties": { "CountyFIPS": 8063, "Pop_With_Asthma": 80139.1, "TotalPopulation": 8270, "CountyState": "Kit Carson, CO", "Longitude": -102.59152006666666, "Latitude": 39.3054323, "Percentage": 9.6903385731559855 }, "geometry": { "type": "Point", "coordinates": [ -102.591520066666661, 39.3054323 ] } },
{ "type": "Feature", "properties": { "CountyFIPS": 8065, "Pop_With_Asthma": 73534.0, "TotalPopulation": 7310, "CountyState": "Lake, CO", "Longitude": -106.3320342, "Latitude": 39.21881166, "Percentage": 10.059370725034199 }, "geometry": { "type": "Point", "coordinates": [ -106.33203420000001, 39.21881166 ] } },
{ "type": "Feature", "properties": { "CountyFIPS": 8067, "Pop_With_Asthma": 503355.4, "TotalPopulation": 51334, "CountyState": "La Plata, CO", "Longitude": -107.83113696000001, "Latitude": 37.291936256999996, "Percentage": 9.8054973312034921 }, "geometry": { "type": "Point", "coordinates": [ -107.83113696, 37.291936257 ] } },
{ "type": "Feature", "properties": { "CountyFIPS": 8069, "Pop_With_Asthma": 2956124.4, "TotalPopulation": 299630, "CountyState": "Larimer, CO", "Longitude": -105.11975915342467, "Latitude": 40.523520657123285, "Percentage": 9.8659159630210596 }, "geometry": { "type": "Point", "coordinates": [ -105.119759153424667, 40.523520657123285 ] } },
{ "type": "Feature", "properties": { "CountyFIPS": 8071, "Pop_With_Asthma": 153591.3, "TotalPopulation": 15507, "CountyState": "Las Animas, CO", "Longitude": -104.47758125, "Latitude": 37.19476275666667, "Percentage": 9.9046430644225207 }, "geometry": { "type": "Point", "coordinates": [ -104.47758125, 37.19476275666667 ] } },
{ "type": "Feature", "properties": { "CountyFIPS": 8073, "Pop_With_Asthma": 52652.2, "TotalPopulation": 5467, "CountyState": "Lincoln, CO", "Longitude": -103.55083315, "Latitude": 39.137744165000001, "Percentage": 9.6309127492226079 }, "geometry": { "type": "Point", "coordinates": [ -103.550833149999988, 39.137744165 ] } },
{ "type": "Feature", "properties": { "CountyFIPS": 8075, "Pop_With_Asthma": 225237.0, "TotalPopulation": 22709, "CountyState": "Logan, CO", "Longitude": -103.17632698333334, "Latitude": 40.68457871, "Percentage": 9.9184023955260034 }, "geometry": { "type": "Point", "coordinates": [ -103.17632698333334, 40.68457871 ] } },
{ "type": "Feature", "properties": { "CountyFIPS": 8077, "Pop_With_Asthma": 1519153.9, "TotalPopulation": 146723, "CountyState": "Mesa, CO", "Longitude": -108.53429023103448, "Latitude": 39.086496377241382, "Percentage": 10.353890664721959 }, "geometry": { "type": "Point", "coordinates": [ -108.534290231034475, 39.086496377241382 ] } },
{ "type": "Feature", "properties": { "CountyFIPS": 8079, "Pop_With_Asthma": 6977.6, "TotalPopulation": 712, "CountyState": "Mineral, CO", "Longitude": -106.9240906, "Latitude": 37.66899352, "Percentage": 9.8 }, "geometry": { "type": "Point", "coordinates": [ -106.9240906, 37.66899352 ] } },
{ "type": "Feature", "properties": { "CountyFIPS": 8081, "Pop_With_Asthma": 144095.5, "TotalPopulation": 13795, "CountyState": "Moffat, CO", "Longitude": -107.715865675, "Latitude": 40.5479383025, "Percentage": 10.445487495469372 }, "geometry": { "type": "Point", "coordinates": [ -107.715865675, 40.5479383025 ] } },
{ "type": "Feature", "properties": { "CountyFIPS": 8083, "Pop_With_Asthma": 274056.2, "TotalPopulation": 25535, "CountyState": "Montezuma, CO", "Longitude": -108.56055808571429, "Latitude": 37.363074382857143, "Percentage": 10.732570981006463 }, "geometry": { "type": "Point", "coordinates": [ -108.560558085714291, 37.363074382857143 ] } },
{ "type": "Feature", "properties": { "CountyFIPS": 8085, "Pop_With_Asthma": 426739.7, "TotalPopulation": 41276, "CountyState": "Montrose, CO", "Longitude": -107.95283492000002, "Latitude": 38.466842556000003, "Percentage": 10.338688341893594 }, "geometry": { "type": "Point", "coordinates": [ -107.952834920000015, 38.466842556 ] } },
{ "type": "Feature", "properties": { "CountyFIPS": 8087, "Pop_With_Asthma": 295133.7, "TotalPopulation": 28159, "CountyState": "Morgan, CO", "Longitude": -103.8001555875, "Latitude": 40.239184391249999, "Percentage": 10.48097233566533 }, "geometry": { "type": "Point", "coordinates": [ -103.800155587500001, 40.239184391249999 ] } },
{ "type": "Feature", "properties": { "CountyFIPS": 8089, "Pop_With_Asthma": 197341.3, "TotalPopulation": 18831, "CountyState": "Otero, CO", "Longitude": -103.69390971428571, "Latitude": 38.02094261000001, "Percentage": 10.479597472253198 }, "geometry": { "type": "Point", "coordinates": [ -103.693909714285709, 38.02094261 ] } },
{ "type": "Feature", "properties": { "CountyFIPS": 8091, "Pop_With_Asthma": 42142.0, "TotalPopulation": 4436, "CountyState": "Ouray, CO", "Longitude": -107.7693083, "Latitude": 38.15545191, "Percentage": 9.5 }, "geometry": { "type": "Point", "coordinates": [ -107.7693083, 38.15545191 ] } },
{ "type": "Feature", "properties": { "CountyFIPS": 8093, "Pop_With_Asthma": 158664.1, "TotalPopulation": 16206, "CountyState": "Park, CO", "Longitude": -105.73155588, "Latitude": 39.2406754, "Percentage": 9.790454152782921 }, "geometry": { "type": "Point", "coordinates": [ -105.73155588, 39.2406754 ] } },
{ "type": "Feature", "properties": { "CountyFIPS": 8095, "Pop_With_Asthma": 44133.8, "TotalPopulation": 4442, "CountyState": "Phillips, CO", "Longitude": -102.37304345, "Latitude": 40.59403942, "Percentage": 9.9355695632597936 }, "geometry": { "type": "Point", "coordinates": [ -102.37304345, 40.59403942 ] } },
{ "type": "Feature", "properties": { "CountyFIPS": 8097, "Pop_With_Asthma": 155933.7, "TotalPopulation": 17148, "CountyState": "Pitkin, CO", "Longitude": -106.8818118, "Latitude": 39.184001637500003, "Percentage": 9.093404478656403 }, "geometry": { "type": "Point", "coordinates": [ -106.8818118, 39.184001637500003 ] } },
{ "type": "Feature", "properties": { "CountyFIPS": 8099, "Pop_With_Asthma": 132701.0, "TotalPopulation": 12551, "CountyState": "Prowers, CO", "Longitude": -102.4955721, "Latitude": 38.044920114, "Percentage": 10.572942395028285 }, "geometry": { "type": "Point", "coordinates": [ -102.4955721, 38.044920114 ] } },
{ "type": "Feature", "properties": { "CountyFIPS": 8101, "Pop_With_Asthma": 1715082.3, "TotalPopulation": 159063, "CountyState": "Pueblo, CO", "Longitude": -104.63431802777778, "Latitude": 38.264708222962966, "Percentage": 10.782408856868035 }, "geometry": { "type": "Point", "coordinates": [ -104.63431802777778, 38.264708222962966 ] } },
{ "type": "Feature", "properties": { "CountyFIPS": 8103, "Pop_With_Asthma": 68449.8, "TotalPopulation": 6666, "CountyState": "Rio Blanco, CO", "Longitude": -108.3159451, "Latitude": 39.978360305000002, "Percentage": 10.268496849684967 }, "geometry": { "type": "Point", "coordinates": [ -108.3159451, 39.978360305 ] } },
{ "type": "Feature", "properties": { "CountyFIPS": 8105, "Pop_With_Asthma": 121257.9, "TotalPopulation": 11982, "CountyState": "Rio Grande, CO", "Longitude": -106.30342386666666, "Latitude": 37.613786743333328, "Percentage": 10.120005007511267 }, "geometry": { "type": "Point", "coordinates": [ -106.303423866666662, 37.613786743333328 ] } },
{ "type": "Feature", "properties": { "CountyFIPS": 8107, "Pop_With_Asthma": 228088.8, "TotalPopulation": 23509, "CountyState": "Routt, CO", "Longitude": -106.9413097875, "Latitude": 40.447166751250002, "Percentage": 9.7021906503892126 }, "geometry": { "type": "Point", "coordinates": [ -106.941309787500003, 40.447166751250002 ] } },
{ "type": "Feature", "properties": { "CountyFIPS": 8109, "Pop_With_Asthma": 63208.9, "TotalPopulation": 6108, "CountyState": "Saguache, CO", "Longitude": -106.29084925, "Latitude": 37.970265485, "Percentage": 10.348542894564506 }, "geometry": { "type": "Point", "coordinates": [ -106.29084925, 37.970265485 ] } },
{ "type": "Feature", "properties": { "CountyFIPS": 8111, "Pop_With_Asthma": 6850.2, "TotalPopulation": 699, "CountyState": "San Juan, CO", "Longitude": -107.6761473, "Latitude": 37.76403573, "Percentage": 9.8 }, "geometry": { "type": "Point", "coordinates": [ -107.6761473, 37.76403573 ] } },
{ "type": "Feature", "properties": { "CountyFIPS": 8113, "Pop_With_Asthma": 69281.2, "TotalPopulation": 7359, "CountyState": "San Miguel, CO", "Longitude": -108.050152525, "Latitude": 37.950140057500001, "Percentage": 9.4144856638130197 }, "geometry": { "type": "Point", "coordinates": [ -108.050152525, 37.950140057500001 ] } },
{ "type": "Feature", "properties": { "CountyFIPS": 8115, "Pop_With_Asthma": 24979.5, "TotalPopulation": 2379, "CountyState": "Sedgwick, CO", "Longitude": -102.3518213, "Latitude": 40.87587123, "Percentage": 10.5 }, "geometry": { "type": "Point", "coordinates": [ -102.3518213, 40.87587123 ] } },
{ "type": "Feature", "properties": { "CountyFIPS": 8117, "Pop_With_Asthma": 259073.4, "TotalPopulation": 27994, "CountyState": "Summit, CO", "Longitude": -106.0724078, "Latitude": 39.565396708000002, "Percentage": 9.2546045581195973 }, "geometry": { "type": "Point", "coordinates": [ -106.0724078, 39.565396708 ] } },
{ "type": "Feature", "properties": { "CountyFIPS": 8119, "Pop_With_Asthma": 229899.6, "TotalPopulation": 23350, "CountyState": "Teller, CO", "Longitude": -105.1287178, "Latitude": 38.899597313333331, "Percentage": 9.8458072805139185 }, "geometry": { "type": "Point", "coordinates": [ -105.1287178, 38.899597313333331 ] } },
{ "type": "Feature", "properties": { "CountyFIPS": 8121, "Pop_With_Asthma": 48673.0, "TotalPopulation": 4814, "CountyState": "Washington, CO", "Longitude": -103.220444, "Latitude": 40.03203451, "Percentage": 10.110718737017034 }, "geometry": { "type": "Point", "coordinates": [ -103.220444, 40.03203451 ] } },
{ "type": "Feature", "properties": { "CountyFIPS": 8123, "Pop_With_Asthma": 2551255.1, "TotalPopulation": 252825, "CountyState": "Weld, CO", "Longitude": -104.79745623506493, "Latitude": 40.31718721688312, "Percentage": 10.090992188272521 }, "geometry": { "type": "Point", "coordinates": [ -104.797456235064928, 40.31718721688312 ] } },
{ "type": "Feature", "properties": { "CountyFIPS": 8125, "Pop_With_Asthma": 100890.2, "TotalPopulation": 10043, "CountyState": "Yuma, CO", "Longitude": -102.4476629, "Latitude": 40.001185165000003, "Percentage": 10.045822961266554 }, "geometry": { "type": "Point", "coordinates": [ -102.4476629, 40.001185165 ] } },
{ "type": "Feature", "properties": { "CountyFIPS": 9001, "Pop_With_Asthma": 8199387.2, "TotalPopulation": 916829, "CountyState": "Fairfield, CT", "Longitude": -73.360071061904762, "Latitude": 41.200973971095237, "Percentage": 8.9432022765422996 }, "geometry": { "type": "Point", "coordinates": [ -73.360071061904762, 41.200973971095237 ] } },
{ "type": "Feature", "properties": { "CountyFIPS": 9003, "Pop_With_Asthma": 10189321.5, "TotalPopulation": 894014, "CountyState": "Hartford, CT", "Longitude": -72.714744202914801, "Latitude": 41.764786913677128, "Percentage": 11.397272861498813 }, "geometry": { "type": "Point", "coordinates": [ -72.714744202914801, 41.764786913677128 ] } },
{ "type": "Feature", "properties": { "CountyFIPS": 9005, "Pop_With_Asthma": 2036452.6, "TotalPopulation": 189927, "CountyState": "Litchfield, CT", "Longitude": -73.195375100392155, "Latitude": 41.741821747254903, "Percentage": 10.722291196091131 }, "geometry": { "type": "Point", "coordinates": [ -73.195375100392155, 41.741821747254903 ] } },
{ "type": "Feature", "properties": { "CountyFIPS": 9007, "Pop_With_Asthma": 1680732.6, "TotalPopulation": 165676, "CountyState": "Middlesex, CT", "Longitude": -72.577532948055548, "Latitude": 41.483144900277779, "Percentage": 10.144695671068833 }, "geometry": { "type": "Point", "coordinates": [ -72.577532948055548, 41.483144900277779 ] } },
{ "type": "Feature", "properties": { "CountyFIPS": 9009, "Pop_With_Asthma": 9512007.0, "TotalPopulation": 862477, "CountyState": "New Haven, CT", "Longitude": -72.941484850105823, "Latitude": 41.400161922222225, "Percentage": 11.028708011923797 }, "geometry": { "type": "Point", "coordinates": [ -72.941484850105823, 41.400161922222225 ] } },
{ "type": "Feature", "properties": { "CountyFIPS": 9011, "Pop_With_Asthma": 2938682.2, "TotalPopulation": 274055, "CountyState": "New London, CT", "Longitude": -72.097495002307696, "Latitude": 41.436524329692304, "Percentage": 10.722965098246704 }, "geometry": { "type": "Point", "coordinates": [ -72.097495002307696, 41.436524329692304 ] } },
{ "type": "Feature", "properties": { "CountyFIPS": 9013, "Pop_With_Asthma": 1660719.4, "TotalPopulation": 152691, "CountyState": "Tolland, CT", "Longitude": -72.376503400689657, "Latitude": 41.847590005862067, "Percentage": 10.876341107203437 }, "geometry": { "type": "Point", "coordinates": [ -72.376503400689657, 41.847590005862067 ] } },
{ "type": "Feature", "properties": { "CountyFIPS": 9015, "Pop_With_Asthma": 1285841.9, "TotalPopulation": 118428, "CountyState": "Windham, CT", "Longitude": -72.006520007199995, "Latitude": 41.800212073599994, "Percentage": 10.857583510656262 }, "geometry": { "type": "Point", "coordinates": [ -72.006520007199995, 41.800212073599994 ] } },
{ "type": "Feature", "properties": { "CountyFIPS": 10001, "Pop_With_Asthma": 1805937.6, "TotalPopulation": 162310, "CountyState": "Kent, DE", "Longitude": -75.555627366250008, "Latitude": 39.114628243749998, "Percentage": 11.126471566754976 }, "geometry": { "type": "Point", "coordinates": [ -75.555627366250008, 39.114628243749998 ] } },
{ "type": "Feature", "properties": { "CountyFIPS": 10003, "Pop_With_Asthma": 5661959.4, "TotalPopulation": 538479, "CountyState": "New Castle, DE", "Longitude": -75.616527243798444, "Latitude": 39.703368777131786, "Percentage": 10.514726479584162 }, "geometry": { "type": "Point", "coordinates": [ -75.616527243798444, 39.703368777131786 ] } },
{ "type": "Feature", "properties": { "CountyFIPS": 10005, "Pop_With_Asthma": 1875747.6, "TotalPopulation": 197145, "CountyState": "Sussex, DE", "Longitude": -75.302112309622643, "Latitude": 38.65015464, "Percentage": 9.5145583200182617 }, "geometry": { "type": "Point", "coordinates": [ -75.302112309622643, 38.65015464 ] } },
{ "type": "Feature", "properties": { "CountyFIPS": 11001, "Pop_With_Asthma": 6480120.2, "TotalPopulation": 601690, "CountyState": "District of Columbia, DC", "Longitude": -77.008494486011244, "Latitude": 38.907041352191015, "Percentage": 10.769865212983431 }, "geometry": { "type": "Point", "coordinates": [ -77.008494486011244, 38.907041352191015 ] } },
{ "type": "Feature", "properties": { "CountyFIPS": 12001, "Pop_With_Asthma": 2397664.2, "TotalPopulation": 247336, "CountyState": "Alachua, FL", "Longitude": -82.378355845178575, "Latitude": 29.660130251607143, "Percentage": 9.6939555907753032 }, "geometry": { "type": "Point", "coordinates": [ -82.378355845178575, 29.660130251607143 ] } },
{ "type": "Feature", "properties": { "CountyFIPS": 12003, "Pop_With_Asthma": 247772.3, "TotalPopulation": 27115, "CountyState": "Baker, FL", "Longitude": -82.19570659, "Latitude": 30.297812765, "Percentage": 9.1378314586022498 }, "geometry": { "type": "Point", "coordinates": [ -82.19570659, 30.297812765 ] } },
{ "type": "Feature", "properties": { "CountyFIPS": 12005, "Pop_With_Asthma": 1587710.2, "TotalPopulation": 168852, "CountyState": "Bay, FL", "Longitude": -85.672069363953497, "Latitude": 30.18721936488372, "Percentage": 9.4029694643830091 }, "geometry": { "type": "Point", "coordinates": [ -85.672069363953497, 30.18721936488372 ] } },
{ "type": "Feature", "properties": { "CountyFIPS": 12007, "Pop_With_Asthma": 272491.2, "TotalPopulation": 28520, "CountyState": "Bradford, FL", "Longitude": -82.142597237499999, "Latitude": 29.969314845, "Percentage": 9.5543899018232796 }, "geometry": { "type": "Point", "coordinates": [ -82.142597237499999, 29.969314845 ] } },
{ "type": "Feature", "properties": { "CountyFIPS": 12009, "Pop_With_Asthma": 4929315.1, "TotalPopulation": 543369, "CountyState": "Brevard, FL", "Longitude": -80.686275262072073, "Latitude": 28.251055812072075, "Percentage": 9.0717635713483826 }, "geometry": { "type": "Point", "coordinates": [ -80.686275262072073, 28.251055812072075 ] } },
{ "type": "Feature", "properties": { "CountyFIPS": 12011, "Pop_With_Asthma": 14895931.1, "TotalPopulation": 1748046, "CountyState": "Broward, FL", "Longitude": -80.21135242402778, "Latitude": 26.140762850722226, "Percentage": 8.5214754646044781 }, "geometry": { "type": "Point", "coordinates": [ -80.21135242402778, 26.140762850722226 ] } },
{ "type": "Feature", "properties": { "CountyFIPS": 12013, "Pop_With_Asthma": 142154.7, "TotalPopulation": 14625, "CountyState": "Calhoun, FL", "Longitude": -85.14747981, "Latitude": 30.438655806666663, "Percentage": 9.7199794871794865 }, "geometry": { "type": "Point", "coordinates": [ -85.14747981, 30.438655806666663 ] } },
{ "type": "Feature", "properties": { "CountyFIPS": 12015, "Pop_With_Asthma": 1373369.5, "TotalPopulation": 159978, "CountyState": "Charlotte, FL", "Longitude": -82.113908459210535, "Latitude": 26.94961042736842, "Percentage": 8.5847397767192994 }, "geometry": { "type": "Point", "coordinates": [ -82.113908459210535, 26.94961042736842 ] } },
{ "type": "Feature", "properties": { "CountyFIPS": 12017, "Pop_With_Asthma": 1279689.5, "TotalPopulation": 141236, "CountyState": "Citrus, FL", "Longitude": -82.442313138518514, "Latitude": 28.852335501851851, "Percentage": 9.0606467189668365 }, "geometry": { "type": "Point", "coordinates": [ -82.442313138518514, 28.852335501851851 ] } },
{ "type": "Feature", "properties": { "CountyFIPS": 12019, "Pop_With_Asthma": 1703419.3, "TotalPopulation": 190865, "CountyState": "Clay, FL", "Longitude": -81.812969711000008, "Latitude": 30.061326003666668, "Percentage": 8.9247337123097488 }, "geometry": { "type": "Point", "coordinates": [ -81.812969711, 30.061326003666668 ] } },